{
    "type": "FeatureCollection",
    "features": [
{
		"media_id":"24029",
		"title":"El Zahir",
		"file":"ELzahi.jpg",
		"author":"cme",
		"fname":"Abdelilah ",
		"lname":"JENNANE",
		"nickname":"",
		"geometry": {
			            "coordinates":[43.29710470240158, 5.359611511230469], "type":"Point"},
		"fk_collection_id":"2"
	},	
	{
		"media_id":"23955",
		"title":"sous le ciel de Marseille",
		"file":"DSC0047.jpg",
		"author":"me",
		"fname":"marie-chantal",
		"lname":"marin",
		"nickname":"",
		"geometry": {
			            "coordinates":[43.28573649961325, 5.37506103515625], "type":"Point"},
		"fk_collection_id":"2"
	},	
	{
		"media_id":"23911",
		"title":"silhouettes",
		"file":"diapoaylan28.jpg",
		"author":"anonyme",
		"fname":"",
		"lname":"",
		"nickname":"",
		"geometry": {
			            "coordinates":[43.285361627228546, 5.350643993297126], "type":"Point"},
		"fk_collection_id":"3"
	},	
	{
		"media_id":"23820",
		"title":"La Major",
		"file":"DSCF091.jpg",
		"author":"nickname",
		"fname":"",
		"lname":"",
		"nickname":"lili",
		"geometry": {
			            "coordinates":[43.28570318513211, 5.36956787109375], "type":"Point"},
		"fk_collection_id":"2"
	},	
	{
		"media_id":"23818",
		"title":"La rampe de dentelle",
		"file":"Surlarampededentell.png",
		"author":"nickname",
		"fname":"",
		"lname":"",
		"nickname":"lili",
		"geometry": {
			            "coordinates":[43.29370008957712, 5.36407470703125], "type":"Point"},
		"fk_collection_id":"2"
	},	
	{
		"media_id":"23817",
		"title":"Tranquille ...",
		"file":"Promenadetranquill.png",
		"author":"",
		"fname":"",
		"lname":"",
		"nickname":"Lili",
		"geometry": {
			            "coordinates":[43.28170433862763, 5.36407470703125], "type":"Point"},
		"fk_collection_id":"1"
	},	
	{
		"media_id":"23816",
		"title":"Photo de travers !",
		"file":"Photodetravers.png",
		"author":"nickname",
		"fname":"",
		"lname":"",
		"nickname":"lili",
		"geometry": {
			            "coordinates":[43.28170433862763, 5.36956787109375], "type":"Point"},
		"fk_collection_id":"2"
	},	
	{
		"media_id":"23811",
		"title":"attention, on vous surveille !",
		"file":"Attentiononvoussurveille.png",
		"author":"nickname",
		"fname":"",
		"lname":"",
		"nickname":"lili",
		"geometry": {
			            "coordinates":[43.28570318513211, 5.36956787109375], "type":"Point"},
		"fk_collection_id":"2"
	},	
	{
		"media_id":"23810",
		"title":"Grandiose !",
		"file":"DSCF097.jpg",
		"author":"nickname",
		"fname":"",
		"lname":"",
		"nickname":"lili",
		"geometry": {
			            "coordinates":[43.28570318513211, 5.38055419921875], "type":"Point"},
		"fk_collection_id":"2"
	},	
	{
		"media_id":"23809",
		"title":"Invitation &agrave; la promenade",
		"file":"DSCF095.jpg",
		"author":"",
		"fname":"",
		"lname":"",
		"nickname":"Lili",
		"geometry": {
			            "coordinates":[43.28170433862763, 5.38055419921875], "type":"Point"},
		"fk_collection_id":"2"
	},	
	{
		"media_id":"23807",
		"title":"Vue &agrave; travers la dentelle de b&eacute;ton",
		"file":"DSCF097.jpg",
		"author":"nickname",
		"fname":"",
		"lname":"",
		"nickname":"lili",
		"geometry": {
			            "coordinates":[43.29370008957712, 5.37506103515625], "type":"Point"},
		"fk_collection_id":"2"
	},	
	{
		"media_id":"23806",
		"title":"J&apos;aime ce parterre de fleurs",
		"file":"DSCF094.jpg",
		"author":"",
		"fname":"",
		"lname":"",
		"nickname":"Lili",
		"geometry": {
			            "coordinates":[43.29370008957712, 5.37506103515625], "type":"Point"},
		"fk_collection_id":"2"
	},	
	{
		"media_id":"23805",
		"title":"J&apos;y ai pas touch&eacute;, c&apos;est promis !",
		"file":"DSCF091.jpg",
		"author":"",
		"fname":"",
		"lname":"",
		"nickname":"Lili",
		"geometry": {
			            "coordinates":[43.28570318513211, 5.38055419921875], "type":"Point"},
		"fk_collection_id":"2"
	},	
	{
		"media_id":"23804",
		"title":"Le fort Saint Jean",
		"file":"DSCF093.jpg",
		"author":"nickname",
		"fname":"",
		"lname":"",
		"nickname":"lili",
		"geometry": {
			            "coordinates":[43.28170433862763, 5.36956787109375], "type":"Point"},
		"fk_collection_id":"2"
	},	
	{
		"media_id":"23803",
		"title":"La gr&acirc;ce faite chair",
		"file":"DSCF097.jpg",
		"author":"nickname",
		"fname":"",
		"lname":"",
		"nickname":"lili",
		"geometry": {
			            "coordinates":[43.28170433862763, 5.37506103515625], "type":"Point"},
		"fk_collection_id":"2"
	},	
	{
		"media_id":"23802",
		"title":"Jolie excursion scolaire",
		"file":"DSCF092.jpg",
		"author":"nickname",
		"fname":"",
		"lname":"",
		"nickname":"lili",
		"geometry": {
			            "coordinates":[43.28970176878268, 5.37506103515625], "type":"Point"},
		"fk_collection_id":"2"
	},	
	{
		"media_id":"23801",
		"title":"La beaut&eacute; &agrave; l&apos;&eacute;tat pur",
		"file":"DSCF097.jpg",
		"author":"nickname",
		"fname":"",
		"lname":"",
		"nickname":"lili",
		"geometry": {
			            "coordinates":[43.30169594258884, 5.38055419921875], "type":"Point"},
		"fk_collection_id":"2"
	},	
	{
		"media_id":"23800",
		"title":"original !!",
		"file":"DSCF095.jpg",
		"author":"nickname",
		"fname":"",
		"lname":"",
		"nickname":"lili",
		"geometry": {
			            "coordinates":[43.28570318513211, 5.37506103515625], "type":"Point"},
		"fk_collection_id":"2"
	},	
	{
		"media_id":"23799",
		"title":"En pleine ville mais quel calme !",
		"file":"DSCF090.jpg",
		"author":"nickname",
		"fname":"",
		"lname":"",
		"nickname":"lili",
		"geometry": {
			            "coordinates":[43.28170433862763, 5.36956787109375], "type":"Point"},
		"fk_collection_id":"2"
	},	
	{
		"media_id":"23798",
		"title":"La mer vue de la passerelle",
		"file":"DSCF093.jpg",
		"author":"nickname",
		"fname":"",
		"lname":"",
		"nickname":"lili",
		"geometry": {
			            "coordinates":[43.28970176878268, 5.36407470703125], "type":"Point"},
		"fk_collection_id":"2"
	},	
	{
		"media_id":"23797",
		"title":"C&apos;est l&apos;heure du d&eacute;part, train bleu et ciel gris ",
		"file":"DSCF098.jpg",
		"author":"nickname",
		"fname":"",
		"lname":"",
		"nickname":"lili",
		"geometry": {
			            "coordinates":[43.28970176878268, 5.37506103515625], "type":"Point"},
		"fk_collection_id":"2"
	},	
	{
		"media_id":"23795",
		"title":"Monter l&agrave;-haut et voler comme icare ...",
		"file":"DSCF094.jpg",
		"author":"nickname",
		"fname":"",
		"lname":"",
		"nickname":"lili",
		"geometry": {
			            "coordinates":[43.28970176878268, 5.36956787109375], "type":"Point"},
		"fk_collection_id":"2"
	},	
	{
		"media_id":"23793",
		"title":"Dentelle sous le soleil",
		"file":"DSCF092.jpg",
		"author":"nickname",
		"fname":"",
		"lname":"",
		"nickname":"lili",
		"geometry": {
			            "coordinates":[43.28970176878268, 5.38055419921875], "type":"Point"},
		"fk_collection_id":"2"
	},	
	{
		"media_id":"23792",
		"title":"Quelle architecture magnifique !",
		"file":"DSCF092.jpg",
		"author":"nickname",
		"fname":"",
		"lname":"",
		"nickname":"lili",
		"geometry": {
			            "coordinates":[43.28970176878268, 5.36407470703125], "type":"Point"},
		"fk_collection_id":"2"
	},	
	{
		"media_id":"23785",
		"title":"Land art",
		"file":"Landar.jpg",
		"author":"me",
		"fname":"Fran&ccedil;oise",
		"lname":"BELMONT",
		"nickname":"",
		"geometry": {
			            "coordinates":[43.393605937843446, 4.577350616455078], "type":"Point"},
		"fk_collection_id":"2"
	},	
	{
		"media_id":"23784",
		"title":"Viande grill&eacute;e &agrave; la broche",
		"file":"P108085.jpg",
		"author":"me",
		"fname":"Fran&ccedil;oise",
		"lname":"Belmont",
		"nickname":"",
		"geometry": {
			            "coordinates":[43.528671029467766, 4.979038238525391], "type":"Point"},
		"fk_collection_id":"1"
	},	
	{
		"media_id":"23779",
		"title":"P&ecirc;che aux Aresquiers",
		"file":"pcheauxAresquier.jpg",
		"author":"me",
		"fname":"Fran&ccedil;oise",
		"lname":"Belmont",
		"nickname":"",
		"geometry": {
			            "coordinates":[43.341226637533396, 5.264854431152344], "type":"Point"},
		"fk_collection_id":"2"
	},	
	{
		"media_id":"23773",
		"title":"Castelviel",
		"file":"Castelvie.jpg",
		"author":"me",
		"fname":"Fran&ccedil;oise",
		"lname":"Belmont ",
		"nickname":"",
		"geometry": {
			            "coordinates":[43.204049680560274, 5.489645004272461], "type":"Point"},
		"fk_collection_id":"2"
	},	
	{
		"media_id":"23759",
		"title":"Plage secr&egrave;te",
		"file":"plagesecrtedelaNerth.jpg",
		"author":"me",
		"fname":"Fran&ccedil;oise",
		"lname":"Belmont ",
		"nickname":"",
		"geometry": {
			            "coordinates":[43.32830786026538, 5.2136993408203125], "type":"Point"},
		"fk_collection_id":"2"
	},	
	{
		"media_id":"23757",
		"title":"le &quot;rail&quot;",
		"file":"Lerai.jpg",
		"author":"me",
		"fname":"Fran&ccedil;oise",
		"lname":"Belmont ",
		"nickname":"",
		"geometry": {
			            "coordinates":[43.298089609636, 5.67469596862793], "type":"Point"},
		"fk_collection_id":"2"
	},	
	{
		"media_id":"23755",
		"title":"Grumeaux",
		"file":"grumeau.jpg",
		"author":"me",
		"fname":"Fran&ccedil;oise",
		"lname":"Belmont ",
		"nickname":"",
		"geometry": {
			            "coordinates":[43.3631955099945, 4.898185729980469], "type":"Point"},
		"fk_collection_id":"2"
	},	
	{
		"media_id":"23752",
		"title":"festons",
		"file":"festo.jpg",
		"author":"me",
		"fname":"Fran&ccedil;oise",
		"lname":"Belmont",
		"nickname":"",
		"geometry": {
			            "coordinates":[43.36968479131849, 4.907798767089844], "type":"Point"},
		"fk_collection_id":"2"
	},	
	{
		"media_id":"23751",
		"title":"Aux caisses de Jeanjean ",
		"file":"CaissesdeJeanjean-Mouri.jpg",
		"author":"me",
		"fname":"Fran&ccedil;oise",
		"lname":"Belmont",
		"nickname":"",
		"geometry": {
			            "coordinates":[43.71194476032583, 4.973931312561035], "type":"Point"},
		"fk_collection_id":"2"
	},	
	{
		"media_id":"23749",
		"title":"vue sur Riou",
		"file":"audessusdeSormiou12.jpg",
		"author":"me",
		"fname":"Fran&ccedil;oise",
		"lname":"Belmont ",
		"nickname":"",
		"geometry": {
			            "coordinates":[43.209713519781836, 5.4406678676605225], "type":"Point"},
		"fk_collection_id":"2"
	},	
	{
		"media_id":"23748",
		"title":"Dunes",
		"file":"dune.jpg",
		"author":"me",
		"fname":"Fran&ccedil;oise",
		"lname":"Belmont",
		"nickname":"",
		"geometry": {
			            "coordinates":[43.3601336603352, 4.8909759521484375], "type":"Point"},
		"fk_collection_id":"2"
	},	
	{
		"media_id":"23747",
		"title":"Le palais du Pharo vu du Mucem",
		"file":"DSCF092.jpg",
		"author":"nickname",
		"fname":"",
		"lname":"",
		"nickname":"lili",
		"geometry": {
			            "coordinates":[43.27370585706567, 5.38055419921875], "type":"Point"},
		"fk_collection_id":"2"
	},	
	{
		"media_id":"23746",
		"title":"Gare Saint-Charles",
		"file":"DSCF750.jpg",
		"author":"nickname",
		"fname":"",
		"lname":"",
		"nickname":"Bor&eacute;on",
		"geometry": {
			            "coordinates":[43.30253242687666, 5.380012392997742], "type":"Point"},
		"fk_collection_id":"2"
	},	
	{
		"media_id":"23744",
		"title":"Imaginaires au Mucem Juillet 2010",
		"file":"DSCF817.jpg",
		"author":"nickname",
		"fname":"",
		"lname":"",
		"nickname":"Bor&eacute;on",
		"geometry": {
			            "coordinates":[43.29708179535297, 5.360856056213379], "type":"Point"},
		"fk_collection_id":"2"
	},	
	{
		"media_id":"23743",
		"title":"Le mar&eacute;graphe ou le point z&eacute;ro des altitudes de la France calcul&eacute;es depuis Marseille",
		"file":"DSCF647.jpg",
		"author":"nickname",
		"fname":"",
		"lname":"",
		"nickname":"Bor&eacute;on",
		"geometry": {
			            "coordinates":[43.277471939524354, 5.355920791625977], "type":"Point"},
		"fk_collection_id":"2"
	},	
	{
		"media_id":"23742",
		"title":"Petite rue au Roucas",
		"file":"DSCF642.jpg",
		"author":"",
		"fname":"",
		"lname":"",
		"nickname":"Bor&eacute;on",
		"geometry": {
			            "coordinates":[43.27840092452113, 5.356650352478027], "type":"Point"},
		"fk_collection_id":"2"
	},	
	{
		"media_id":"23741",
		"title":"Temp&ecirc;te sur la Pointe rouge",
		"file":"IMG_426.jpg",
		"author":"",
		"fname":"",
		"lname":"",
		"nickname":"Bor&eacute;on",
		"geometry": {
			            "coordinates":[43.25070853277653, 5.373365879058838], "type":"Point"},
		"fk_collection_id":"2"
	},	
	{
		"media_id":"23740",
		"title":"Et c&apos;est l&agrave; o&ugrave; la mer devint verte...",
		"file":"DSCF094.jpg",
		"author":"nickname",
		"fname":"",
		"lname":"",
		"nickname":"lili",
		"geometry": {
			            "coordinates":[43.30536903889644, 5.365286730229855], "type":"Point"},
		"fk_collection_id":"2"
	},	
	{
		"media_id":"23739",
		"title":"Vue depuis la route du cap Croisette : au bout du monde dans le 9&egrave;me arrondissment de Marseille",
		"file":"IMG_678.jpg",
		"author":"",
		"fname":"",
		"lname":"",
		"nickname":"Bor&eacute;on",
		"geometry": {
			            "coordinates":[43.21375514913514, 5.3411418199539185], "type":"Point"},
		"fk_collection_id":"2"
	},	
	{
		"media_id":"23738",
		"title":"La passerelle, j&apos;y &eacute;tais !",
		"file":"DSCF093.jpg",
		"author":"nickname",
		"fname":"",
		"lname":"",
		"nickname":"lili",
		"geometry": {
			            "coordinates":[43.26970622201263, 5.37506103515625], "type":"Point"},
		"fk_collection_id":"2"
	},	
	{
		"media_id":"23737",
		"title":"La Chambre de commerce-Cannebi&egrave;re",
		"file":"DSCF078.jpg",
		"author":"",
		"fname":"",
		"lname":"",
		"nickname":"Lili",
		"geometry": {
			            "coordinates":[43.28170433862763, 5.37506103515625], "type":"Point"},
		"fk_collection_id":"2"
	},	
	{
		"media_id":"23736",
		"title":"p&ecirc;cheurs au vieux port",
		"file":"DSCF079.jpg",
		"author":"nickname",
		"fname":"",
		"lname":"",
		"nickname":"lili",
		"geometry": {
			            "coordinates":[43.28570318513211, 5.36956787109375], "type":"Point"},
		"fk_collection_id":"2"
	},	
	{
		"media_id":"23735",
		"title":"La passerelle du Mucem sous la pluie le 13 janvier 2013",
		"file":"IMG_634.jpg",
		"author":"nickname",
		"fname":"",
		"lname":"",
		"nickname":"Bor&eacute;on",
		"geometry": {
			            "coordinates":[43.29733166968536, 5.361199378967285], "type":"Point"},
		"fk_collection_id":"2"
	},	
	{
		"media_id":"23734",
		"title":"Autoportrait r&eacute;ussi sous l&apos;ombri&egrave;re",
		"file":"DSCF080.jpg",
		"author":"",
		"fname":"",
		"lname":"",
		"nickname":"Lili",
		"geometry": {
			            "coordinates":[43.29462983719905, 5.374114215373993], "type":"Point"},
		"fk_collection_id":"3"
	},	
	{
		"media_id":"23733",
		"title":"Je ne m&apos;en lasse pas !",
		"file":"DSCF080.jpg",
		"author":"nickname",
		"fname":"",
		"lname":"",
		"nickname":"lili",
		"geometry": {
			            "coordinates":[43.29462251640716, 5.374111533164978], "type":"Point"},
		"fk_collection_id":"2"
	},	
	{
		"media_id":"23732",
		"title":"R&eacute;sille et porte-&agrave;-faux dans le ciel de Marseille",
		"file":"IMG_610.jpg",
		"author":"nickname",
		"fname":"",
		"lname":"",
		"nickname":"Bor&eacute;on",
		"geometry": {
			            "coordinates":[43.29701516354935, 5.361306667327881], "type":"Point"},
		"fk_collection_id":"2"
	},	
	{
		"media_id":"23731",
		"title":"bonjour les touristes !",
		"file":"DSCF079.jpg",
		"author":"nickname",
		"fname":"",
		"lname":"",
		"nickname":"lili",
		"geometry": {
			            "coordinates":[43.29492022790004, 5.374084711074829], "type":"Point"},
		"fk_collection_id":"2"
	},	
	{
		"media_id":"23730",
		"title":"une girafe au vieux port !",
		"file":"DSCF079.jpg",
		"author":"nickname",
		"fname":"",
		"lname":"",
		"nickname":"lili",
		"geometry": {
			            "coordinates":[43.294172530040086, 5.374009609222412], "type":"Point"},
		"fk_collection_id":"2"
	},	
	{
		"media_id":"23729",
		"title":"La cannebi&egrave;re en vrai",
		"file":"DSCF079.jpg",
		"author":"",
		"fname":"",
		"lname":"",
		"nickname":"Lili",
		"geometry": {
			            "coordinates":[43.2954844115835, 5.375339984893799], "type":"Point"},
		"fk_collection_id":"1"
	},	
	{
		"media_id":"23728",
		"title":"La darse avant... Mucem....",
		"file":"IMG_457.jpg",
		"author":"nickname",
		"fname":"",
		"lname":"",
		"nickname":"Bor&eacute;on",
		"geometry": {
			            "coordinates":[43.29710886593211, 5.362851619720459], "type":"Point"},
		"fk_collection_id":"2"
	},	
	{
		"media_id":"23727",
		"title":"La Major dans toute sa splendeur",
		"file":"DSCF091.jpg",
		"author":"nickname",
		"fname":"",
		"lname":"",
		"nickname":"lili",
		"geometry": {
			            "coordinates":[43.30490150413173, 5.366416275501251], "type":"Point"},
		"fk_collection_id":"2"
	},	
	{
		"media_id":"23726",
		"title":"Le port, le large.... Marseille tourn&eacute;e vers le monde",
		"file":"IMG_460.jpg",
		"author":"",
		"fname":"",
		"lname":"",
		"nickname":"Bor&eacute;on",
		"geometry": {
			            "coordinates":[43.29788971445968, 5.360620021820068], "type":"Point"},
		"fk_collection_id":"2"
	},	
	{
		"media_id":"23725",
		"title":"La major au soleil couchant",
		"file":"IMG_455.jpg",
		"author":"nickname",
		"fname":"",
		"lname":"",
		"nickname":"Bor&eacute;on",
		"geometry": {
			            "coordinates":[43.2977647795216, 5.363023281097412], "type":"Point"},
		"fk_collection_id":"2"
	},	
	{
		"media_id":"23724",
		"title":"Le ballet des ferries est partie int&eacute;grante de Marseille : sa vie portuaire !",
		"file":"IMG_455.jpg",
		"author":"nickname",
		"fname":"",
		"lname":"",
		"nickname":"Bor",
		"geometry": {
			            "coordinates":[43.29708179535297, 5.361542701721191], "type":"Point"},
		"fk_collection_id":"2"
	},	
	{
		"media_id":"23723",
		"title":"dans combien de temps il va fondre ?",
		"file":"DSCF089.jpg",
		"author":"nickname",
		"fname":"",
		"lname":"",
		"nickname":"lili",
		"geometry": {
			            "coordinates":[43.30500300187349, 5.36693662405014], "type":"Point"},
		"fk_collection_id":"2"
	},	
	{
		"media_id":"23722",
		"title":"Mucem, r&eacute;sille et grues au coucher du soleil",
		"file":"IMG_455.jpg",
		"author":"",
		"fname":"",
		"lname":"",
		"nickname":"Bor&eacute;on",
		"geometry": {
			            "coordinates":[43.29689439035961, 5.361199378967285], "type":"Point"},
		"fk_collection_id":"2"
	},	
	{
		"media_id":"23720",
		"title":"Mucem : nous t&apos;observons depuis le d&eacute;but...",
		"file":"IMG_450.jpg",
		"author":"nickname",
		"fname":"",
		"lname":"",
		"nickname":"Bor&eacute;on",
		"geometry": {
			            "coordinates":[43.29691937925055, 5.361253023147583], "type":"Point"},
		"fk_collection_id":"2"
	},	
	{
		"media_id":"23719",
		"title":"Tant de calme et de beaut&eacute;",
		"file":"DSCF091.jpg",
		"author":"",
		"fname":"",
		"lname":"",
		"nickname":"Lili",
		"geometry": {
			            "coordinates":[43.25032926976227, 5.3908538818359375], "type":"Point"},
		"fk_collection_id":"2"
	},	
	{
		"media_id":"23718",
		"title":"Tr&egrave;s beau !",
		"file":"DSCF091.jpg",
		"author":"",
		"fname":"",
		"lname":"",
		"nickname":"Lili",
		"geometry": {
			            "coordinates":[43.25776824843158, 5.386390686035156], "type":"Point"},
		"fk_collection_id":"2"
	},	
	{
		"media_id":"23717",
		"title":"Vacances &agrave; Marseille",
		"file":"marchauxpoisson.jpg",
		"author":"me",
		"fname":"Jean-Louis",
		"lname":"AUGROS",
		"nickname":"",
		"geometry": {
			            "coordinates":[43.25770573979177, 5.33660888671875], "type":"Point"},
		"fk_collection_id":"1"
	},	
	{
		"media_id":"23716",
		"title":" des pandas au vieux port !",
		"file":"DSCF090.jpg",
		"author":"nickname",
		"fname":"",
		"lname":"",
		"nickname":"lili",
		"geometry": {
			            "coordinates":[43.29420767009315, 5.373902320861816], "type":"Point"},
		"fk_collection_id":"2"
	},	
	{
		"media_id":"23715",
		"title":"La Major, pyjama et tags...",
		"file":"IMG_444.jpg",
		"author":"nickname",
		"fname":"",
		"lname":"",
		"nickname":"Bor&eacute;on",
		"geometry": {
			            "coordinates":[43.29776269682565, 5.3633129596710205], "type":"Point"},
		"fk_collection_id":"2"
	},	
	{
		"media_id":"23714",
		"title":"Voutes de la Major....",
		"file":"IMG_443.jpg",
		"author":"",
		"fname":"",
		"lname":"",
		"nickname":"Bor&eacute;on",
		"geometry": {
			            "coordinates":[43.29830928530325, 5.363355875015259], "type":"Point"},
		"fk_collection_id":"2"
	},	
	{
		"media_id":"23713",
		"title":"Joli embarcad&egrave;re du Parc Bor&eacute;ly",
		"file":"DSCF090.jpg",
		"author":"",
		"fname":"",
		"lname":"",
		"nickname":"Lili",
		"geometry": {
			            "coordinates":[43.24532776491651, 5.3922271728515625], "type":"Point"},
		"fk_collection_id":"2"
	},	
	{
		"media_id":"23712",
		"title":"Grues et docks dans le ciel de la ville",
		"file":"IMG_440.jpg",
		"author":"nickname",
		"fname":"",
		"lname":"",
		"nickname":"Bor&eacute;on",
		"geometry": {
			            "coordinates":[43.307325722839636, 5.364375114440918], "type":"Point"},
		"fk_collection_id":"2"
	},	
	{
		"media_id":"23711",
		"title":"Promenade dans les Alpes",
		"file":"img45.jpg",
		"author":"me",
		"fname":"Jean-Louis",
		"lname":"MASINI",
		"nickname":"",
		"geometry": {
			            "coordinates":[44.178756972181695, 5.94635009765625], "type":"Point"},
		"fk_collection_id":"3"
	},	
	{
		"media_id":"23710",
		"title":" La cannebi&egrave;re en trompe-l&apos;oeil",
		"file":"DSCF090.jpg",
		"author":"",
		"fname":"",
		"lname":"",
		"nickname":"Lili",
		"geometry": {
			            "coordinates":[43.28570318513211, 5.35858154296875], "type":"Point"},
		"fk_collection_id":"1"
	},	
	{
		"media_id":"23709",
		"title":"Les Docks",
		"file":"IMG_441.jpg",
		"author":"",
		"fname":"",
		"lname":"",
		"nickname":"Bor&eacute;on",
		"geometry": {
			            "coordinates":[43.30757555316648, 5.365748405456543], "type":"Point"},
		"fk_collection_id":"2"
	},	
	{
		"media_id":"23708",
		"title":"L&apos;enfant sage",
		"file":"img44.jpg",
		"author":"nickname",
		"fname":"",
		"lname":"",
		"nickname":"F GIUGLARS",
		"geometry": {
			            "coordinates":[43.265706324114475, 5.20477294921875], "type":"Point"},
		"fk_collection_id":"3"
	},	
	{
		"media_id":"23707",
		"title":"magestueux !",
		"file":"DSCF081.jpg",
		"author":"nickname",
		"fname":"",
		"lname":"",
		"nickname":"lili",
		"geometry": {
			            "coordinates":[43.26970622201263, 5.35858154296875], "type":"Point"},
		"fk_collection_id":"2"
	},	
	{
		"media_id":"23706",
		"title":"elle porte bien son nom",
		"file":"DSCF081.jpg",
		"author":"nickname",
		"fname":"",
		"lname":"",
		"nickname":"lili",
		"geometry": {
			            "coordinates":[43.29370008957712, 5.36956787109375], "type":"Point"},
		"fk_collection_id":"2"
	},	
	{
		"media_id":"23705",
		"title":"La griffe du temps",
		"file":"lagriffedutemp.jpg",
		"author":"me",
		"fname":"Rose",
		"lname":"MASINI",
		"nickname":"",
		"geometry": {
			            "coordinates":[44.20632721367974, 5.94635009765625], "type":"Point"},
		"fk_collection_id":"3"
	},	
	{
		"media_id":"23704",
		"title":"calanques&apos; trip",
		"file":"DSCF086.jpg",
		"author":"nickname",
		"fname":"",
		"lname":"",
		"nickname":"lili",
		"geometry": {
			            "coordinates":[43.25370505337169, 5.34759521484375], "type":"Point"},
		"fk_collection_id":"2"
	},	
	{
		"media_id":"23703",
		"title":"le savon de La Joliette",
		"file":"DSCF091.jpg",
		"author":"",
		"fname":"",
		"lname":"",
		"nickname":"Lili",
		"geometry": {
			            "coordinates":[43.297698147513245, 5.37506103515625], "type":"Point"},
		"fk_collection_id":"2"
	},	
	{
		"media_id":"23702",
		"title":"caganis",
		"file":"cagani.jpg",
		"author":"anonyme",
		"fname":"",
		"lname":"",
		"nickname":"",
		"geometry": {
			            "coordinates":[43.26170616337345, 5.24322509765625], "type":"Point"},
		"fk_collection_id":"3"
	},	
	{
		"media_id":"23701",
		"title":"plage tranquille aux calanques",
		"file":"DSCF084.jpg",
		"author":"nickname",
		"fname":"",
		"lname":"",
		"nickname":"lili",
		"geometry": {
			            "coordinates":[43.28521896380094, 5.348882675170898], "type":"Point"},
		"fk_collection_id":"2"
	},	
	{
		"media_id":"23700",
		"title":"les lunettes",
		"file":"leslunette.jpg",
		"author":"anonyme",
		"fname":"",
		"lname":"",
		"nickname":"",
		"geometry": {
			            "coordinates":[43.26970622201263, 5.28167724609375], "type":"Point"},
		"fk_collection_id":"3"
	},	
	{
		"media_id":"23699",
		"title":"L&apos;ombri&egrave;re, c&apos;est &ccedil;a .C&apos;est beau !",
		"file":"DSCF089.jpg",
		"author":"",
		"fname":"",
		"lname":"",
		"nickname":"Lili",
		"geometry": {
			            "coordinates":[43.27770522927142, 5.37506103515625], "type":"Point"},
		"fk_collection_id":"1"
	},	
	{
		"media_id":"23698",
		"title":"La vie est belle au vieux port",
		"file":"DSCF088.jpg",
		"author":"",
		"fname":"",
		"lname":"",
		"nickname":"Lili",
		"geometry": {
			            "coordinates":[43.29459030491233, 5.373430252075195], "type":"Point"},
		"fk_collection_id":"1"
	},	
	{
		"media_id":"23697",
		"title":"L&apos; offrande",
		"file":"loffrand.jpg",
		"author":"anonyme",
		"fname":"",
		"lname":"",
		"nickname":"",
		"geometry": {
			            "coordinates":[44.37147779358007, 5.93536376953125], "type":"Point"},
		"fk_collection_id":"3"
	},	
	{
		"media_id":"23692",
		"title":"Du Mucem au fort St Jean",
		"file":"0327.jpg",
		"author":"me",
		"fname":"Philippe",
		"lname":"MARC",
		"nickname":"",
		"geometry": {
			            "coordinates":[43.29666742335002, 5.361074208340142], "type":"Point"},
		"fk_collection_id":"2"
	},	
	{
		"media_id":"23691",
		"title":"Mucem by night",
		"file":"3490.jpg",
		"author":"me",
		"fname":"Philippe",
		"lname":"MARC",
		"nickname":"",
		"geometry": {
			            "coordinates":[43.29676528982274, 5.361160039683455], "type":"Point"},
		"fk_collection_id":"2"
	},	
	{
		"media_id":"23690",
		"title":"Mucem by night",
		"file":"350.jpg",
		"author":"me",
		"fname":"Philippe",
		"lname":"MARC",
		"nickname":"",
		"geometry": {
			            "coordinates":[43.29670282123063, 5.3611600390286185], "type":"Point"},
		"fk_collection_id":"2"
	},	
	{
		"media_id":"23689",
		"title":"Bain du 1er janvier",
		"file":"DSCN313.jpg",
		"author":"me",
		"fname":"Lucien",
		"lname":"DE LUCA",
		"nickname":"",
		"geometry": {
			            "coordinates":[43.17402838847583, 5.6930780480615795], "type":"Point"},
		"fk_collection_id":"3"
	},	
	{
		"media_id":"23688",
		"title":"Bonheur &agrave; la plage",
		"file":"plageStCy.jpg",
		"author":"me",
		"fname":"Delphine",
		"lname":"DE LUCA",
		"nickname":"",
		"geometry": {
			            "coordinates":[43.17339409813685, 5.693800447625108], "type":"Point"},
		"fk_collection_id":"1"
	},	
	{
		"media_id":"23687",
		"title":"A la campagne",
		"file":"alacampagne08.jpg",
		"author":"anonyme",
		"fname":"",
		"lname":"",
		"nickname":"",
		"geometry": {
			            "coordinates":[43.29373339967835, 5.381011851131916], "type":"Point"},
		"fk_collection_id":"3"
	},	
	{
		"media_id":"23685",
		"title":"Guillaume lit une bande dessin&eacute;e",
		"file":"Guillaumelit208.jpg",
		"author":"me",
		"fname":"Delphine",
		"lname":"DE LUCA",
		"nickname":"",
		"geometry": {
			            "coordinates":[43.195807395389046, 5.753331180894747], "type":"Point"},
		"fk_collection_id":"1"
	},	
	{
		"media_id":"23676",
		"title":"Carnaval",
		"file":"DSC_042.jpg",
		"author":"me",
		"fname":"Aur&eacute;lie",
		"lname":"Stein",
		"nickname":"",
		"geometry": {
			            "coordinates":[43.30169594258884, 5.38055419921875], "type":"Point"},
		"fk_collection_id":"1"
	},	
	{
		"media_id":"23675",
		"title":"1er anniversaire &agrave; la cr&egrave;che",
		"file":"IMG_654.jpg",
		"author":"me",
		"fname":"Aur&eacute;lie",
		"lname":"Stein",
		"nickname":"",
		"geometry": {
			            "coordinates":[43.27370585706567, 5.37506103515625], "type":"Point"},
		"fk_collection_id":"3"
	},	
	{
		"media_id":"23673",
		"title":"Mes deux chiennes",
		"file":"100_076.jpg",
		"author":"me",
		"fname":"Aur&eacute;lie",
		"lname":"Stein",
		"nickname":"",
		"geometry": {
			            "coordinates":[43.27770522927142, 5.38604736328125], "type":"Point"},
		"fk_collection_id":"3"
	},	
	{
		"media_id":"23672",
		"title":"Photo de famille",
		"file":"2.jpg",
		"author":"anonyme",
		"fname":"",
		"lname":"",
		"nickname":"",
		"geometry": {
			            "coordinates":[43.3181840687112, 5.4107666015625], "type":"Point"},
		"fk_collection_id":"3"
	},	
	{
		"media_id":"23671",
		"title":"Calanque de figuerolles",
		"file":"DSC_003.jpg",
		"author":"me",
		"fname":"Aurelie",
		"lname":"Stein",
		"nickname":"",
		"geometry": {
			            "coordinates":[43.10950531113185, 5.47943115234375], "type":"Point"},
		"fk_collection_id":"2"
	},	
	{
		"media_id":"23670",
		"title":"concours de saut obstacle",
		"file":"00.jpg",
		"author":"me",
		"fname":"Christian",
		"lname":"Richard",
		"nickname":"",
		"geometry": {
			            "coordinates":[43.557007981627656, 5.44647216796875], "type":"Point"},
		"fk_collection_id":"1"
	},	
	{
		"media_id":"23669",
		"title":"Adieu les dents de lait",
		"file":"19900100-Copi.jpg",
		"author":"me",
		"fname":"Christian",
		"lname":"Richard",
		"nickname":"",
		"geometry": {
			            "coordinates":[43.31122087924693, 5.381412506103516], "type":"Point"},
		"fk_collection_id":"3"
	},	
	{
		"media_id":"23668",
		"title":"Enterrement de vie de jeune fille",
		"file":"DSC0120.jpg",
		"author":"me",
		"fname":"Aurelie",
		"lname":"Stein",
		"nickname":"",
		"geometry": {
			            "coordinates":[43.294340421221534, 5.36982536315918], "type":"Point"},
		"fk_collection_id":"3"
	},	
	{
		"media_id":"23666",
		"title":"Guillaume a trouv&eacute; une bande dessin&eacute;e",
		"file":"Guillaumelit08.jpg",
		"author":"me",
		"fname":"Delphine",
		"lname":"DE LUCA",
		"nickname":"",
		"geometry": {
			            "coordinates":[43.19770121701251, 5.7632160116918385], "type":"Point"},
		"fk_collection_id":"1"
	},	
	{
		"media_id":"23665",
		"title":"Hommes et femmes n&apos;ont pas les m&ecirc;mes lectures ...",
		"file":"lectur.jpg",
		"author":"me",
		"fname":"Delphine",
		"lname":"DE LUCA",
		"nickname":"",
		"geometry": {
			            "coordinates":[43.17758782958622, 5.690195558709092], "type":"Point"},
		"fk_collection_id":"1"
	},	
	{
		"media_id":"23664",
		"title":"",
		"file":"Tennis08.jpg",
		"author":"anonyme",
		"fname":"",
		"lname":"",
		"nickname":"",
		"geometry": {
			            "coordinates":[43.30972404549117, 5.370025523006916], "type":"Point"},
		"fk_collection_id":"3"
	},	
	{
		"media_id":"23663",
		"title":"Bain de Floriane avec son p&egrave;re",
		"file":"BainFloL08.jpg",
		"author":"me",
		"fname":"Delphine",
		"lname":"DE LUCA",
		"nickname":"",
		"geometry": {
			            "coordinates":[43.14336608244261, 5.7563495566137135], "type":"Point"},
		"fk_collection_id":"1"
	},	
	{
		"media_id":"23661",
		"title":"Quai Marceau",
		"file":"304.jpg",
		"author":"me",
		"fname":"Philippe",
		"lname":"MARC",
		"nickname":"",
		"geometry": {
			            "coordinates":[43.4052813269518, 5.054227709333645], "type":"Point"},
		"fk_collection_id":"2"
	},	
	{
		"media_id":"23660",
		"title":"Quai Marceau",
		"file":"3025.jpg",
		"author":"me",
		"fname":"Philippe",
		"lname":"MARC",
		"nickname":"",
		"geometry": {
			            "coordinates":[43.40535927311168, 5.054227709333645], "type":"Point"},
		"fk_collection_id":"2"
	},	
	{
		"media_id":"23657",
		"title":"Exposition Mona Hatoum",
		"file":"20130217ExpopnitentsnoirsAubagne024Net.jpg",
		"author":"me",
		"fname":"Claudine",
		"lname":"Barr&eacute;",
		"nickname":"",
		"geometry": {
			            "coordinates":[43.29370008957712, 5.56182861328125], "type":"Point"},
		"fk_collection_id":"1"
	},	
	{
		"media_id":"23656",
		"title":"Sculpteur de glace 2",
		"file":"20130112MP201314.jpg",
		"author":"me",
		"fname":"Claudine",
		"lname":"Barr&eacute;",
		"nickname":"",
		"geometry": {
			            "coordinates":[43.30169594258884, 5.37506103515625], "type":"Point"},
		"fk_collection_id":"1"
	},	
	{
		"media_id":"23655",
		"title":"Sculpteur de glace",
		"file":"20130112MP201314.jpg",
		"author":"me",
		"fname":"Claudine",
		"lname":"Barr&eacute;",
		"nickname":"",
		"geometry": {
			            "coordinates":[43.31368775063093, 5.36956787109375], "type":"Point"},
		"fk_collection_id":"1"
	},	
	{
		"media_id":"23654",
		"title":"Silhouettes au J1",
		"file":"20130112MP2013009.jpg",
		"author":"me",
		"fname":"Claudine",
		"lname":"Barr&eacute;",
		"nickname":"",
		"geometry": {
			            "coordinates":[43.31368775063093, 5.36956787109375], "type":"Point"},
		"fk_collection_id":"3"
	},	
	{
		"media_id":"23653",
		"title":"Panorama depuis la digue du Grand Large",
		"file":"IMG_573.jpg",
		"author":"me",
		"fname":"Denis",
		"lname":"SCHANG",
		"nickname":"",
		"geometry": {
			            "coordinates":[43.16191722923907, 5.131896995007992], "type":"Point"},
		"fk_collection_id":"2"
	},	
	{
		"media_id":"23652",
		"title":"La Baie des Singes",
		"file":"IMG_563.jpg",
		"author":"me",
		"fname":"Denis",
		"lname":"SCHANG",
		"nickname":"",
		"geometry": {
			            "coordinates":[43.22245725654013, 5.340637229382992], "type":"Point"},
		"fk_collection_id":"2"
	},	
	{
		"media_id":"23651",
		"title":"La pointe de Sugiton",
		"file":"IMG_549.jpg",
		"author":"me",
		"fname":"Denis",
		"lname":"SCHANG",
		"nickname":"",
		"geometry": {
			            "coordinates":[43.23072935045144, 5.395568870007992], "type":"Point"},
		"fk_collection_id":"2"
	},	
	{
		"media_id":"23650",
		"title":"La p&ecirc;che &agrave; pieds",
		"file":"20130508-11Agde16.jpg",
		"author":"me",
		"fname":"Claudine",
		"lname":"Barr&eacute;",
		"nickname":"",
		"geometry": {
			            "coordinates":[43.33366883995533, 3.47442626953125], "type":"Point"},
		"fk_collection_id":"1"
	},	
	{
		"media_id":"23648",
		"title":"Marchand sur le Vieux Port",
		"file":"20130503Marseilleentreflammesetflots00.jpg",
		"author":"me",
		"fname":"Claudine",
		"lname":"Barr&eacute;",
		"nickname":"",
		"geometry": {
			            "coordinates":[43.309690744149876, 5.38055419921875], "type":"Point"},
		"fk_collection_id":"1"
	},	
	{
		"media_id":"23647",
		"title":"La fin du roi carnaval 2",
		"file":"20130323carnavalFuveau07.jpg",
		"author":"me",
		"fname":"Claudine",
		"lname":"Barr&eacute;",
		"nickname":"",
		"geometry": {
			            "coordinates":[43.46400868446286, 5.5693817138671875], "type":"Point"},
		"fk_collection_id":"1"
	},	
	{
		"media_id":"23646",
		"title":"MURAILLE MARITIME",
		"file":"marseille-mp.jpg",
		"author":"me",
		"fname":"ALAIN",
		"lname":"DENIEL ",
		"nickname":"",
		"geometry": {
			            "coordinates":[43.273872462137135, 5.370483510196209], "type":"Point"},
		"fk_collection_id":"2"
	},	
	{
		"media_id":"23645",
		"title":"HOMMO PORTUS",
		"file":"BaladeMarseille-.jpg",
		"author":"me",
		"fname":"ALAIN",
		"lname":"DENIEL ",
		"nickname":"",
		"geometry": {
			            "coordinates":[43.29713593649921, 5.361843109130859], "type":"Point"},
		"fk_collection_id":"1"
	},	
	{
		"media_id":"23644",
		"title":"La fin du roi carnaval",
		"file":"20130323carnavalFuveau06.jpg",
		"author":"me",
		"fname":"Claudine",
		"lname":"Barr&eacute;",
		"nickname":"",
		"geometry": {
			            "coordinates":[43.45902476041961, 5.5721282958984375], "type":"Point"},
		"fk_collection_id":"1"
	},	
	{
		"media_id":"23643",
		"title":"Sans titre",
		"file":"DSC_045.jpg",
		"author":"me",
		"fname":"Claudine",
		"lname":"Barr&eacute;",
		"nickname":"",
		"geometry": {
			            "coordinates":[41.98603585974727, 8.690185546875], "type":"Point"},
		"fk_collection_id":"1"
	},	
	{
		"media_id":"23642",
		"title":"NOTRE DAME DE LA GARDE",
		"file":"39.jpg",
		"author":"me",
		"fname":"CHRISTIAN",
		"lname":"MAURETTE ",
		"nickname":"",
		"geometry": {
			            "coordinates":[43.275765503111565, 5.3700074180960655], "type":"Point"},
		"fk_collection_id":"2"
	},	
	{
		"media_id":"23641",
		"title":"LA TOUR",
		"file":"41.jpg",
		"author":"me",
		"fname":"CHRISTIAN ",
		"lname":"MAURETTE ",
		"nickname":"",
		"geometry": {
			            "coordinates":[43.27360589380386, 5.3700074180960655], "type":"Point"},
		"fk_collection_id":"2"
	},	
	{
		"media_id":"23640",
		"title":"LA TOUR ",
		"file":"41.jpg",
		"author":"me",
		"fname":"CHRISTIAN ",
		"lname":"MAURETTE ",
		"nickname":"",
		"geometry": {
			            "coordinates":[43.28024461118513, 5.3700074180960655], "type":"Point"},
		"fk_collection_id":"2"
	},	
	{
		"media_id":"23639",
		"title":"LA TOUR",
		"file":"41.jpg",
		"author":"me",
		"fname":"CHRISTIAN ",
		"lname":"MAURETTE ",
		"nickname":"",
		"geometry": {
			            "coordinates":[43.2750456418579, 5.3809937462210655], "type":"Point"},
		"fk_collection_id":"2"
	},	
	{
		"media_id":"23638",
		"title":"LA TOUR",
		"file":"41.jpg",
		"author":"me",
		"fname":"CHRISTIAN ",
		"lname":"MAURETTE ",
		"nickname":"",
		"geometry": {
			            "coordinates":[43.29399987983157, 5.3809937462210655], "type":"Point"},
		"fk_collection_id":"2"
	},	
	{
		"media_id":"23637",
		"title":"LA TOUR",
		"file":"41.jpg",
		"author":"me",
		"fname":"CHRISTIAN",
		"lname":"MAURETTE ",
		"nickname":"",
		"geometry": {
			            "coordinates":[43.27404565769491, 5.3700074180960655], "type":"Point"},
		"fk_collection_id":"2"
	},	
	{
		"media_id":"23636",
		"title":"LA TOUR",
		"file":"41.jpg",
		"author":"me",
		"fname":"CHRISTIAN",
		"lname":"MAURETTE ",
		"nickname":"",
		"geometry": {
			            "coordinates":[43.270326055714534, 5.3755005821585655], "type":"Point"},
		"fk_collection_id":"2"
	},	
	{
		"media_id":"23635",
		"title":"LE MUCEM",
		"file":"257LeMuCEM.jpg",
		"author":"me",
		"fname":"CHRISTIAN ",
		"lname":"MAURETTE ",
		"nickname":"",
		"geometry": {
			            "coordinates":[43.281444394743694, 5.3809937462210655], "type":"Point"},
		"fk_collection_id":"2"
	},	
	{
		"media_id":"23634",
		"title":"NOTRE DAME DE LA GARDE ",
		"file":"25.jpg",
		"author":"me",
		"fname":"CHRISTIAN ",
		"lname":"MAURETTE ",
		"nickname":"",
		"geometry": {
			            "coordinates":[43.27688531104079, 5.3700074180960655], "type":"Point"},
		"fk_collection_id":"2"
	},	
	{
		"media_id":"23633",
		"title":"NOTRE DAME DE LA GARDE",
		"file":"21.jpg",
		"author":"me",
		"fname":"CHRISTIAN ",
		"lname":"MAURETTE ",
		"nickname":"",
		"geometry": {
			            "coordinates":[43.28848225791475, 5.3864869102835655], "type":"Point"},
		"fk_collection_id":"2"
	},	
	{
		"media_id":"23632",
		"title":"NOTRE DAME DE LA GARDE",
		"file":"211NotreDamedelaGarde.jpg",
		"author":"me",
		"fname":"CHRISTIAN ",
		"lname":"MAURETTE ",
		"nickname":"",
		"geometry": {
			            "coordinates":[43.28924198408657, 5.3755005821585655], "type":"Point"},
		"fk_collection_id":"2"
	},	
	{
		"media_id":"23631",
		"title":"NOTRE DAME DE LA GARDE",
		"file":"255NotreDamedelaGarde.jpg",
		"author":"me",
		"fname":"CHRISTIAN ",
		"lname":"MAURETTE",
		"nickname":"",
		"geometry": {
			            "coordinates":[43.272445990617165, 5.3809937462210655], "type":"Point"},
		"fk_collection_id":"2"
	},	
	{
		"media_id":"23630",
		"title":"Saga Africa",
		"file":"S005202.jpg",
		"author":"me",
		"fname":"Emmanuel",
		"lname":"NEULET",
		"nickname":"",
		"geometry": {
			            "coordinates":[43.29631344341075, 5.37620541639626], "type":"Point"},
		"fk_collection_id":"1"
	},	
	{
		"media_id":"23629",
		"title":"&ccedil;a danse sur le port",
		"file":"S002201.jpg",
		"author":"me",
		"fname":"Emmanuel",
		"lname":"NEULET",
		"nickname":"",
		"geometry": {
			            "coordinates":[43.29623014115394, 5.376892061904073], "type":"Point"},
		"fk_collection_id":"1"
	},	
	{
		"media_id":"23628",
		"title":"Au d&eacute;part",
		"file":"S081184.jpg",
		"author":"me",
		"fname":"Emmmanuel",
		"lname":"NEULET",
		"nickname":"",
		"geometry": {
			            "coordinates":[43.310919039240716, 5.3663634695112705], "type":"Point"},
		"fk_collection_id":"2"
	},	
	{
		"media_id":"23627",
		"title":"L&apos;attente",
		"file":"S022178.jpg",
		"author":"me",
		"fname":"EMMANUEL",
		"lname":"NEULET",
		"nickname":"",
		"geometry": {
			            "coordinates":[43.31724736321365, 5.367050156928599], "type":"Point"},
		"fk_collection_id":"3"
	},	
	{
		"media_id":"23626",
		"title":"Les chaises",
		"file":"DSCF198.jpg",
		"author":"me",
		"fname":"EMMANUEL",
		"lname":"NEULET",
		"nickname":"",
		"geometry": {
			            "coordinates":[43.29398121161713, 5.376892082858831], "type":"Point"},
		"fk_collection_id":"2"
	},	
	{
		"media_id":"23625",
		"title":"Partie de football",
		"file":"DSCF198.jpg",
		"author":"me",
		"fname":"Emmanuel",
		"lname":"NEULET",
		"nickname":"",
		"geometry": {
			            "coordinates":[43.29359076398837, 5.374603257514536], "type":"Point"},
		"fk_collection_id":"1"
	},	
	{
		"media_id":"23624",
		"title":"La Major",
		"file":"DSCF173.jpg",
		"author":"me",
		"fname":"Emmanuel",
		"lname":"NEULET",
		"nickname":"",
		"geometry": {
			            "coordinates":[43.30108692046766, 5.365505204536021], "type":"Point"},
		"fk_collection_id":"2"
	},	
	{
		"media_id":"23623",
		"title":"Le mucem",
		"file":"DSCF187.jpg",
		"author":"me",
		"fname":"Emmanuel",
		"lname":"NEULET",
		"nickname":"",
		"geometry": {
			            "coordinates":[43.297146352945205, 5.360755892470479], "type":"Point"},
		"fk_collection_id":"2"
	},	
	{
		"media_id":"23622",
		"title":"Calanques de Morgiou",
		"file":"IMG_534.jpg",
		"author":"me",
		"fname":"Denis",
		"lname":"SCHANG",
		"nickname":"",
		"geometry": {
			            "coordinates":[43.242668594551695, 5.357116721570492], "type":"Point"},
		"fk_collection_id":"2"
	},	
	{
		"media_id":"23618",
		"title":"Ma naissance ",
		"file":"198305105.jpg",
		"author":"me",
		"fname":"Christian",
		"lname":"Richard",
		"nickname":"",
		"geometry": {
			            "coordinates":[43.31266120081118, 5.409801006317139], "type":"Point"},
		"fk_collection_id":"3"
	},	
	{
		"media_id":"23614",
		"title":"Le Vallon des Auffes",
		"file":"IMG_535.jpg",
		"author":"me",
		"fname":"Denis",
		"lname":"SCHANG",
		"nickname":"",
		"geometry": {
			            "coordinates":[43.25753896838017, 5.368103049695492], "type":"Point"},
		"fk_collection_id":"2"
	},	
	{
		"media_id":"23610",
		"title":"Indestructible",
		"file":"P804010.jpg",
		"author":"",
		"fname":"",
		"lname":"",
		"nickname":"Souvenirsouvenirs",
		"geometry": {
			            "coordinates":[43.27720532212024, 5.262451171875], "type":"Point"},
		"fk_collection_id":"1"
	},	
	{
		"media_id":"23608",
		"title":"D&eacute;but de soir&eacute;e &agrave; la Plage",
		"file":"P902001.jpg",
		"author":"",
		"fname":"",
		"lname":"",
		"nickname":"Souvenirsouvenirs",
		"geometry": {
			            "coordinates":[43.24520272203359, 5.262451171875], "type":"Point"},
		"fk_collection_id":"3"
	},	
	{
		"media_id":"23607",
		"title":"L&apos;&eacute;cume des Jours",
		"file":"PC31015.jpg",
		"author":"",
		"fname":"",
		"lname":"",
		"nickname":"Souvenirsouvenirs",
		"geometry": {
			            "coordinates":[43.27720532212024, 5.3668212890625], "type":"Point"},
		"fk_collection_id":"3"
	},	
	{
		"media_id":"23606",
		"title":"",
		"file":"PA28000.jpg",
		"author":"",
		"fname":"",
		"lname":"",
		"nickname":"Souvenirsouvenirs",
		"geometry": {
			            "coordinates":[43.265206318396025, 5.3118896484375], "type":"Point"},
		"fk_collection_id":"3"
	},	
	{
		"media_id":"23604",
		"title":"Ma&iuml;a en vill&eacute;giature",
		"file":"20091002Agde00.jpg",
		"author":"me",
		"fname":"Claudine",
		"lname":"Barr&eacute;",
		"nickname":"",
		"geometry": {
			            "coordinates":[43.32567719285037, 3.45794677734375], "type":"Point"},
		"fk_collection_id":"3"
	},	
	{
		"media_id":"23597",
		"title":"Sur la terrasse",
		"file":"six-fourannecriquisurlaterrassedejuliette196.jpg",
		"author":"anonyme",
		"fname":"",
		"lname":"",
		"nickname":"",
		"geometry": {
			            "coordinates":[43.115238487565996, 5.816144943237305], "type":"Point"},
		"fk_collection_id":"3"
	},	
	{
		"media_id":"23591",
		"title":"Crique de Sormiou",
		"file":"IMG_5281_modifi-.jpg",
		"author":"me",
		"fname":"Denis",
		"lname":"SCHANG",
		"nickname":"",
		"geometry": {
			            "coordinates":[43.22232385996676, 5.368103049695492], "type":"Point"},
		"fk_collection_id":"2"
	},	
	{
		"media_id":"23590",
		"title":"Calanque de Sormiou",
		"file":"IMG_5297_modifi-.jpg",
		"author":"me",
		"fname":"Denis",
		"lname":"SCHANG",
		"nickname":"",
		"geometry": {
			            "coordinates":[43.24173475567243, 5.373596213757992], "type":"Point"},
		"fk_collection_id":"2"
	},	
	{
		"media_id":"23589",
		"title":"sans titre",
		"file":"20130508-11Agde15.jpg",
		"author":"me",
		"fname":"Claudine",
		"lname":"Barr&eacute;",
		"nickname":"",
		"geometry": {
			            "coordinates":[43.33366883995533, 3.47442626953125], "type":"Point"},
		"fk_collection_id":"2"
	},	
	{
		"media_id":"23588",
		"title":"Sans titre",
		"file":"20130508-11Agde10.jpg",
		"author":"me",
		"fname":"Claudine",
		"lname":"Barr&eacute;",
		"nickname":"",
		"geometry": {
			            "coordinates":[43.321680974983344, 3.46893310546875], "type":"Point"},
		"fk_collection_id":"1"
	},	
	{
		"media_id":"23586",
		"title":"la cigale veille sur les morts",
		"file":"IMG_403.jpg",
		"author":"me",
		"fname":"Nicolas",
		"lname":"Criqui",
		"nickname":"",
		"geometry": {
			            "coordinates":[43.1283789062796, 5.798898339271545], "type":"Point"},
		"fk_collection_id":"3"
	},	
	{
		"media_id":"23584",
		"title":"petit ange",
		"file":"IMG_591.jpg",
		"author":"me",
		"fname":"Nicolas",
		"lname":"Criqui",
		"nickname":"",
		"geometry": {
			            "coordinates":[43.11537946054865, 5.797691345214844], "type":"Point"},
		"fk_collection_id":"3"
	},	
	{
		"media_id":"23582",
		"title":"Les p&acirc;t&eacute;s",
		"file":"20130508-11_110.jpg",
		"author":"me",
		"fname":"Claudine",
		"lname":"Barr&eacute;",
		"nickname":"",
		"geometry": {
			            "coordinates":[43.321680974983344, 3.46343994140625], "type":"Point"},
		"fk_collection_id":"1"
	},	
	{
		"media_id":"23578",
		"title":"A la petite chapelle",
		"file":"sanarypetitechapelle196.jpg",
		"author":"anonyme",
		"fname":"",
		"lname":"",
		"nickname":"",
		"geometry": {
			            "coordinates":[43.11532463776065, 5.7977235317230225], "type":"Point"},
		"fk_collection_id":"3"
	},	
	{
		"media_id":"23577",
		"title":"Massif de la Sainte Baume",
		"file":"IMG_297.jpg",
		"author":"me",
		"fname":"Denis",
		"lname":"SCHANG",
		"nickname":"",
		"geometry": {
			            "coordinates":[43.37311218382002, 5.609802268445492], "type":"Point"},
		"fk_collection_id":"2"
	},	
	{
		"media_id":"23575",
		"title":"Phare de Carry le Rouet",
		"file":"IMG_2587_modifi-.jpg",
		"author":"me",
		"fname":"Denis",
		"lname":"SCHANG",
		"nickname":"",
		"geometry": {
			            "coordinates":[43.37464279282263, 4.956115745007992], "type":"Point"},
		"fk_collection_id":"1"
	},	
	{
		"media_id":"23570",
		"title":"CMA CGM",
		"file":"DSC0326.jpg",
		"author":"me",
		"fname":"Jean Christophe",
		"lname":"LE BORGNE",
		"nickname":"",
		"geometry": {
			            "coordinates":[43.29154477743047, 5.344247817993164], "type":"Point"},
		"fk_collection_id":"2"
	},	
	{
		"media_id":"23566",
		"title":"Au parc Borelly",
		"file":"20130403Marseille08.jpg",
		"author":"me",
		"fname":"Claudine",
		"lname":"Barr&eacute;",
		"nickname":"",
		"geometry": {
			            "coordinates":[43.25533036392946, 5.3936004638671875], "type":"Point"},
		"fk_collection_id":"1"
	},	
	{
		"media_id":"23565",
		"title":"Pluie de confettis",
		"file":"20130323carnavalFuveau12.jpg",
		"author":"me",
		"fname":"Claudine",
		"lname":"Barr&eacute;",
		"nickname":"",
		"geometry": {
			            "coordinates":[43.46101837933918, 5.5762481689453125], "type":"Point"},
		"fk_collection_id":"3"
	},	
	{
		"media_id":"23564",
		"title":"Carnaval",
		"file":"20130323carnavalFuveau08.jpg",
		"author":"me",
		"fname":"Claudine",
		"lname":"Barr&eacute;",
		"nickname":"",
		"geometry": {
			            "coordinates":[43.45902476041961, 5.5721282958984375], "type":"Point"},
		"fk_collection_id":"1"
	},	
	{
		"media_id":"23563",
		"title":"La f&ecirc;te est dans la rue",
		"file":"20130112MP201317.jpg",
		"author":"me",
		"fname":"Claudine",
		"lname":"Barr&eacute;",
		"nickname":"",
		"geometry": {
			            "coordinates":[43.31368775063093, 5.37506103515625], "type":"Point"},
		"fk_collection_id":"1"
	},	
	{
		"media_id":"23562",
		"title":"Sur le sable, avec un b&acirc;ton j&apos;&eacute;crirai ton nom...",
		"file":"20120724LaCouronne06.jpg",
		"author":"me",
		"fname":"Claudine",
		"lname":"Barr&eacute;",
		"nickname":"",
		"geometry": {
			            "coordinates":[43.33223291836262, 5.042381286621094], "type":"Point"},
		"fk_collection_id":"1"
	},	
	{
		"media_id":"23561",
		"title":"sans titre",
		"file":"20130503Marseilleentreflammesetflots094Net.jpg",
		"author":"me",
		"fname":"Claudine",
		"lname":"Barr&eacute;",
		"nickname":"",
		"geometry": {
			            "coordinates":[43.31368775063093, 5.38055419921875], "type":"Point"},
		"fk_collection_id":"3"
	},	
	{
		"media_id":"23558",
		"title":"L&apos;Ile des Embiez au printemps",
		"file":"IMG_5069_modifi-.jpg",
		"author":"me",
		"fname":"Denis",
		"lname":"SCHANG",
		"nickname":"",
		"geometry": {
			            "coordinates":[43.03938555388528, 5.813049338757992], "type":"Point"},
		"fk_collection_id":"2"
	},	
	{
		"media_id":"23555",
		"title":"La Major",
		"file":"IMG_4471_modifi-.jpg",
		"author":"me",
		"fname":"Denis",
		"lname":"SCHANG",
		"nickname":"",
		"geometry": {
			            "coordinates":[43.25940590309616, 5.348968505859375], "type":"Point"},
		"fk_collection_id":"2"
	},	
	{
		"media_id":"23554",
		"title":"Animation sur le Vieux Port",
		"file":"IMG_404.jpg",
		"author":"me",
		"fname":"Denis",
		"lname":"SCHANG",
		"nickname":"",
		"geometry": {
			            "coordinates":[43.2636062969136, 5.376434326171875], "type":"Point"},
		"fk_collection_id":"1"
	},	
	{
		"media_id":"23553",
		"title":"Eglise Saint Laurent",
		"file":"IMG_319.jpg",
		"author":"me",
		"fname":"Denis",
		"lname":"SCHANG",
		"nickname":"",
		"geometry": {
			            "coordinates":[43.260806066567696, 5.373596213757992], "type":"Point"},
		"fk_collection_id":"2"
	},	
	{
		"media_id":"23551",
		"title":"Expo Marseille 2013 sur le Vieux Port",
		"file":"IMG_391.jpg",
		"author":"me",
		"fname":"Denis",
		"lname":"SCHANG",
		"nickname":"",
		"geometry": {
			            "coordinates":[43.27193944909044, 5.390075705945492], "type":"Point"},
		"fk_collection_id":"2"
	},	
	{
		"media_id":"23550",
		"title":"Fort Saint Jean",
		"file":"7.jpg",
		"author":"me",
		"fname":"Denis",
		"lname":"SCHANG",
		"nickname":"",
		"geometry": {
			            "coordinates":[43.26287298545867, 5.395568870007992], "type":"Point"},
		"fk_collection_id":"2"
	},	
	{
		"media_id":"23548",
		"title":"La Vieille Charit&eacute;",
		"file":"_MG_967.jpg",
		"author":"me",
		"fname":"Denis",
		"lname":"SCHANG",
		"nickname":"",
		"geometry": {
			            "coordinates":[43.27327255968925, 5.379089377820492], "type":"Point"},
		"fk_collection_id":"2"
	},	
	{
		"media_id":"23547",
		"title":"A la plage",
		"file":"20130508-11Agde00.jpg",
		"author":"me",
		"fname":"Claudine",
		"lname":"Barr&eacute;",
		"nickname":"",
		"geometry": {
			            "coordinates":[43.32567719285037, 3.46893310546875], "type":"Point"},
		"fk_collection_id":"1"
	},	
	{
		"media_id":"23546",
		"title":"L&apos;enfant et la statue de Folon",
		"file":"20130403Marseille09.jpg",
		"author":"me",
		"fname":"Claudine",
		"lname":"Barr&eacute;",
		"nickname":"",
		"geometry": {
			            "coordinates":[43.254330177950536, 5.3963470458984375], "type":"Point"},
		"fk_collection_id":"3"
	},	
	{
		"media_id":"23545",
		"title":"Pauline et Bouboule",
		"file":"20110522Pauline00.jpg",
		"author":"me",
		"fname":"Claudine",
		"lname":"Barr&eacute;",
		"nickname":"",
		"geometry": {
			            "coordinates":[43.4671234283531, 5.458831787109375], "type":"Point"},
		"fk_collection_id":"3"
	},	
	{
		"media_id":"23544",
		"title":"Vallon des Auffes",
		"file":"20130403Marseille079Net.jpg",
		"author":"me",
		"fname":"Claudine",
		"lname":"Barr&eacute;",
		"nickname":"",
		"geometry": {
			            "coordinates":[43.28551965008118, 5.3511786460876465], "type":"Point"},
		"fk_collection_id":"1"
	},	
	{
		"media_id":"23529",
		"title":"TransHumance des Butterri &agrave; La Bouilladisse",
		"file":"P101063.jpg",
		"author":"me",
		"fname":"Quynh",
		"lname":"Nguyen",
		"nickname":"",
		"geometry": {
			            "coordinates":[43.39292900369497, 5.595872509293258], "type":"Point"},
		"fk_collection_id":"1"
	},	
	{
		"media_id":"23528",
		"title":"Marineland",
		"file":"02.jpg",
		"author":"me",
		"fname":"Quynh",
		"lname":"Nguyen",
		"nickname":"",
		"geometry": {
			            "coordinates":[43.57751573457183, 7.125430321320891], "type":"Point"},
		"fk_collection_id":"3"
	},	
	{
		"media_id":"23527",
		"title":"Marineland",
		"file":"01.jpg",
		"author":"me",
		"fname":"Quynh",
		"lname":"Nguyen",
		"nickname":"",
		"geometry": {
			            "coordinates":[43.56490936506171, 7.2266968712210655], "type":"Point"},
		"fk_collection_id":"3"
	},	
	{
		"media_id":"23526",
		"title":"Zen !",
		"file":"P101005.jpg",
		"author":"me",
		"fname":"Quynh",
		"lname":"Nguyen",
		"nickname":"",
		"geometry": {
			            "coordinates":[44.047049678032955, 3.9841370098292827], "type":"Point"},
		"fk_collection_id":"2"
	},	
	{
		"media_id":"23525",
		"title":"Premier bain de l&apos;ann&eacute;e",
		"file":"23.jpg",
		"author":"me",
		"fname":"Quynh",
		"lname":"Nguyen",
		"nickname":"",
		"geometry": {
			            "coordinates":[43.26861627955094, 6.625552391633391], "type":"Point"},
		"fk_collection_id":"3"
	},	
	{
		"media_id":"23524",
		"title":"Dans les pins",
		"file":"IMG_036.jpg",
		"author":"me",
		"fname":"Quynh",
		"lname":"Nguyen",
		"nickname":"",
		"geometry": {
			            "coordinates":[43.367831219191025, 5.635409569367766], "type":"Point"},
		"fk_collection_id":"1"
	},	
	{
		"media_id":"23523",
		"title":"Le mur dentel&eacute;",
		"file":"IMG_05.jpg",
		"author":"me",
		"fname":"CHRISTOPHE",
		"lname":"TOURNIGAND",
		"nickname":"",
		"geometry": {
			            "coordinates":[43.29373327766337, 5.35858154296875], "type":"Point"},
		"fk_collection_id":"2"
	},	
	{
		"media_id":"23522",
		"title":"La fin des travaux",
		"file":"IMG_05.jpg",
		"author":"me",
		"fname":"CHRISTOPHE",
		"lname":"TOURNIGAND",
		"nickname":"",
		"geometry": {
			            "coordinates":[43.2657395274738, 5.34759521484375], "type":"Point"},
		"fk_collection_id":"2"
	},	
	{
		"media_id":"23515",
		"title":"Fr&eacute;d&eacute;ric",
		"file":"sc00126cd.jpg",
		"author":"me",
		"fname":"Pierre",
		"lname":"Guin ",
		"nickname":"",
		"geometry": {
			            "coordinates":[43.05684777584547, 6.141357421875], "type":"Point"},
		"fk_collection_id":"3"
	},	
	{
		"media_id":"23507",
		"title":"ernestito,c&apos;est un nom qui plait aux femmes...",
		"file":"0142.jpg",
		"author":"me",
		"fname":"Christian",
		"lname":"Richard",
		"nickname":"",
		"geometry": {
			            "coordinates":[43.282604004378754, 5.3864869102835655], "type":"Point"},
		"fk_collection_id":"1"
	},	
	{
		"media_id":"23504",
		"title":"ma belle au chapeau",
		"file":"00.jpg",
		"author":"me",
		"fname":"Christian",
		"lname":"Richard",
		"nickname":"",
		"geometry": {
			            "coordinates":[43.297398253482925, 5.3700074180960655], "type":"Point"},
		"fk_collection_id":"3"
	},	
	{
		"media_id":"23503",
		"title":"bise arl&eacute;sienne",
		"file":"0042.jpg",
		"author":"me",
		"fname":"christian",
		"lname":"richard",
		"nickname":"",
		"geometry": {
			            "coordinates":[43.67621541407117, 4.6174439415335655], "type":"Point"},
		"fk_collection_id":"1"
	},	
	{
		"media_id":"23502",
		"title":"belle arl&eacute;sienne le jour de l&apos;&eacute;lection",
		"file":"00.jpg",
		"author":"me",
		"fname":"christian",
		"lname":"richard",
		"nickname":"",
		"geometry": {
			            "coordinates":[43.685590790626044, 4.6174439415335655], "type":"Point"},
		"fk_collection_id":"1"
	},	
	{
		"media_id":"23501",
		"title":"gardian place de la r&eacute;publique",
		"file":"00.jpg",
		"author":"me",
		"fname":"christian",
		"lname":"richard",
		"nickname":"",
		"geometry": {
			            "coordinates":[43.69198584515199, 4.6284302696585655], "type":"Point"},
		"fk_collection_id":"1"
	},	
	{
		"media_id":"23500",
		"title":"&agrave; la poursuite du leure...",
		"file":"00.jpg",
		"author":"me",
		"fname":"Christian",
		"lname":"Richard",
		"nickname":"",
		"geometry": {
			            "coordinates":[43.25864085990097, 5.577333080582321], "type":"Point"},
		"fk_collection_id":"3"
	},	
	{
		"media_id":"23499",
		"title":"profil ombr&eacute; en  sortie du bain",
		"file":"00.jpg",
		"author":"me",
		"fname":"Christian",
		"lname":"Richard",
		"nickname":"",
		"geometry": {
			            "coordinates":[43.30171582842467, 5.3645142540335655], "type":"Point"},
		"fk_collection_id":"3"
	},	
	{
		"media_id":"23496",
		"title":"Des fleurs pour la mari&eacute;e",
		"file":"0102.jpg",
		"author":"me",
		"fname":"Emile",
		"lname":"Richard",
		"nickname":"",
		"geometry": {
			            "coordinates":[43.273485913261815, 5.3755005821585655], "type":"Point"},
		"fk_collection_id":"3"
	},	
	{
		"media_id":"23495",
		"title":"labourage ",
		"file":"01.jpg",
		"author":"anonyme",
		"fname":"",
		"lname":"",
		"nickname":"",
		"geometry": {
			            "coordinates":[43.39408904431015, 6.316651138477027], "type":"Point"},
		"fk_collection_id":"1"
	},	
	{
		"media_id":"23494",
		"title":"Yvette,ma belle-m&egrave;re et Anne-Marie,ma &quot; promise&quot;, que je ne connaissais pas encore...",
		"file":"00.jpg",
		"author":"me",
		"fname":"Yvette",
		"lname":"Guillemin",
		"nickname":"",
		"geometry": {
			            "coordinates":[46.67816230847435, 5.5402955040335655], "type":"Point"},
		"fk_collection_id":"3"
	},	
	{
		"media_id":"23492",
		"title":"la 4 chevaux de beau-papa,avec Anne-Marie,ma future &eacute;pouse!",
		"file":"0022.jpg",
		"author":"me",
		"fname":"Yvette",
		"lname":"Guillemin",
		"nickname":"",
		"geometry": {
			            "coordinates":[46.62707049150922, 5.5293091759085655], "type":"Point"},
		"fk_collection_id":"3"
	},	
	{
		"media_id":"23491",
		"title":"4L aux Salins",
		"file":"00.jpg",
		"author":"me",
		"fname":"Christian",
		"lname":"Richard",
		"nickname":"",
		"geometry": {
			            "coordinates":[43.40602522152622, 4.777899216860533], "type":"Point"},
		"fk_collection_id":"3"
	},	
	{
		"media_id":"23490",
		"title":"quand le jura descend dans le sud...",
		"file":"0024.jpg",
		"author":"me",
		"fname":"Yvette",
		"lname":"Guillemin",
		"nickname":"",
		"geometry": {
			            "coordinates":[43.52833912611117, 3.9229156728833914], "type":"Point"},
		"fk_collection_id":"3"
	},	
	{
		"media_id":"23489",
		"title":"Communion priv&eacute;e de mon &eacute;pouse Anne-Marie",
		"file":"0013.jpg",
		"author":"me",
		"fname":"Yvette",
		"lname":"Guillemin ",
		"nickname":"",
		"geometry": {
			            "coordinates":[46.653395353692275, 5.5348023399710655], "type":"Point"},
		"fk_collection_id":"3"
	},	
	{
		"media_id":"23488",
		"title":"rycam,brave &eacute;pagneul",
		"file":"0012.jpg",
		"author":"me",
		"fname":"Christian",
		"lname":"Richard",
		"nickname":"",
		"geometry": {
			            "coordinates":[46.693423893085985, 5.5457886680960655], "type":"Point"},
		"fk_collection_id":"3"
	},	
	{
		"media_id":"23487",
		"title":"C&eacute;line au zoo",
		"file":"zoolongchampceline03198.jpg",
		"author":"me",
		"fname":"&eacute;mile",
		"lname":"Richard",
		"nickname":"",
		"geometry": {
			            "coordinates":[43.31746467895583, 5.3700074180960655], "type":"Point"},
		"fk_collection_id":"3"
	},	
	{
		"media_id":"23486",
		"title":"the Race &agrave; Marseille",
		"file":"therace03200.jpg",
		"author":"me",
		"fname":"Christian",
		"lname":"Richard",
		"nickname":"",
		"geometry": {
			            "coordinates":[43.30663285916671, 5.3700074180960655], "type":"Point"},
		"fk_collection_id":"1"
	},	
	{
		"media_id":"23485",
		"title":"mon p&egrave;re matelot",
		"file":"septembre194.jpg",
		"author":"anonyme",
		"fname":"",
		"lname":"",
		"nickname":"",
		"geometry": {
			            "coordinates":[43.116061766112786, 5.9412964805960655], "type":"Point"},
		"fk_collection_id":"3"
	},	
	{
		"media_id":"23484",
		"title":"A cheval en Camargue",
		"file":"saintesmaries150919742.jpg",
		"author":"me",
		"fname":"Christian",
		"lname":"Richard",
		"nickname":"",
		"geometry": {
			            "coordinates":[43.44901083224643, 4.3812378868460655], "type":"Point"},
		"fk_collection_id":"1"
	},	
	{
		"media_id":"23482",
		"title":"Papa, maman, ma soeur sur notre cane,cane,canebi&egrave;re",
		"file":"richardforgue0101195.jpg",
		"author":"anonyme",
		"fname":"",
		"lname":"",
		"nickname":"",
		"geometry": {
			            "coordinates":[43.31390757958065, 5.3755005821585655], "type":"Point"},
		"fk_collection_id":"2"
	},	
	{
		"media_id":"23479",
		"title":"pr&eacute;paration du pique nique ",
		"file":"picnic198.jpg",
		"author":"me",
		"fname":"Christian",
		"lname":"Richard",
		"nickname":"",
		"geometry": {
			            "coordinates":[43.26452630372296, 5.671403504675254], "type":"Point"},
		"fk_collection_id":"1"
	},	
	{
		"media_id":"23478",
		"title":"Boules de neige sur Palais Longchamp",
		"file":"noel195832.jpg",
		"author":"me",
		"fname":"&eacute;mile",
		"lname":"Richard",
		"nickname":"",
		"geometry": {
			            "coordinates":[43.312668519431135, 5.3645142540335655], "type":"Point"},
		"fk_collection_id":"1"
	},	
	{
		"media_id":"23477",
		"title":"Morgane en petite marseillaise ,sur le Vieux Port",
		"file":"morgane050820062.jpg",
		"author":"me",
		"fname":"Christian",
		"lname":"Richard",
		"nickname":"",
		"geometry": {
			            "coordinates":[43.31043020040731, 5.3590210899710655], "type":"Point"},
		"fk_collection_id":"3"
	},	
	{
		"media_id":"23476",
		"title":"Ma m&egrave;re, ma soeur et des amis sur la Canebi&egrave;re",
		"file":"montrealphoto54lacanebier.jpg",
		"author":"anonyme",
		"fname":"",
		"lname":"",
		"nickname":"",
		"geometry": {
			            "coordinates":[43.30895124839995, 5.3755005821585655], "type":"Point"},
		"fk_collection_id":"3"
	},	
	{
		"media_id":"23474",
		"title":"Anne-Marie &agrave; Longchamp",
		"file":"marseillejuin1977.jpg",
		"author":"me",
		"fname":"Christian",
		"lname":"Richard",
		"nickname":"",
		"geometry": {
			            "coordinates":[43.27668539479841, 5.3919800743460655], "type":"Point"},
		"fk_collection_id":"3"
	},	
	{
		"media_id":"23469",
		"title":"a cheval,mon &acirc;ne...",
		"file":"lechazelet_07196.jpg",
		"author":"me",
		"fname":"Christian",
		"lname":"Richard",
		"nickname":"",
		"geometry": {
			            "coordinates":[45.019340306961624, 6.3862427696585655], "type":"Point"},
		"fk_collection_id":"1"
	},	
	{
		"media_id":"23467",
		"title":"Dans la gueule d&apos;H&eacute;ra...",
		"file":"hera12199.jpg",
		"author":"me",
		"fname":"Christian",
		"lname":"Richard",
		"nickname":"",
		"geometry": {
			            "coordinates":[43.29296041455556, 5.3700074180960655], "type":"Point"},
		"fk_collection_id":"3"
	},	
	{
		"media_id":"23466",
		"title":"bise &agrave; h&eacute;ra,notre d&eacute;esse...",
		"file":"hera0519942.jpg",
		"author":"me",
		"fname":"Christian",
		"lname":"Richard",
		"nickname":"",
		"geometry": {
			            "coordinates":[43.30223562570051, 5.3755005821585655], "type":"Point"},
		"fk_collection_id":"3"
	},	
	{
		"media_id":"23464",
		"title":"Marseille XIII champion !",
		"file":"finalemarseilleXIII09051965_perpignan6.jpg",
		"author":"me",
		"fname":"Vincent",
		"lname":"Lazeri",
		"nickname":"",
		"geometry": {
			            "coordinates":[42.69624426149134, 2.8870975971221924], "type":"Point"},
		"fk_collection_id":"3"
	},	
	{
		"media_id":"23460",
		"title":"Emile,mon p&egrave;re,sur la Canebi&egrave;re",
		"file":"emile2908194.jpg",
		"author":"anonyme",
		"fname":"",
		"lname":"",
		"nickname":"",
		"geometry": {
			            "coordinates":[43.289761743095994, 5.3755005821585655], "type":"Point"},
		"fk_collection_id":"3"
	},	
	{
		"media_id":"23459",
		"title":"Mon grand p&egrave;re Edouard avec son hydravion FBA",
		"file":"edouardhydravionfba20avril1916ecolestraphaelouvriermecanicie.jpg",
		"author":"me",
		"fname":"Christian",
		"lname":"Richard",
		"nickname":"",
		"geometry": {
			            "coordinates":[43.42277180325464, 6.766403967048973], "type":"Point"},
		"fk_collection_id":"3"
	},	
	{
		"media_id":"23456",
		"title":"ciel de Friche",
		"file":"DSC_015.jpg",
		"author":"me",
		"fname":"Christian",
		"lname":"Richard",
		"nickname":"",
		"geometry": {
			            "coordinates":[43.27076614845838, 5.3645142540335655], "type":"Point"},
		"fk_collection_id":"2"
	},	
	{
		"media_id":"23455",
		"title":"Hommage J1 qui nous accueille",
		"file":"DSC_001.jpg",
		"author":"me",
		"fname":"Christian",
		"lname":"Richard",
		"nickname":"",
		"geometry": {
			            "coordinates":[43.28500339376528, 5.3700074180960655], "type":"Point"},
		"fk_collection_id":"2"
	},	
	{
		"media_id":"23454",
		"title":"ma m&egrave;re Dolores,aux Catalans",
		"file":"doloreslescatalans195521.jpg",
		"author":"me",
		"fname":"&eacute;mile",
		"lname":"Richard",
		"nickname":"",
		"geometry": {
			            "coordinates":[43.26164616140302, 5.3590210899710655], "type":"Point"},
		"fk_collection_id":"3"
	},	
	{
		"media_id":"23453",
		"title":"les cousins marseillais et pyr&eacute;n&eacute;ens r&eacute;unis",
		"file":"cousinades1407200.jpg",
		"author":"me",
		"fname":"Christian",
		"lname":"Richard",
		"nickname":"",
		"geometry": {
			            "coordinates":[43.083533252563335, -0.9031856060028076], "type":"Point"},
		"fk_collection_id":"1"
	},	
	{
		"media_id":"23452",
		"title":"Les cousinades",
		"file":"cousinadesjanodet05199813.jpg",
		"author":"me",
		"fname":"Christian",
		"lname":"Richard",
		"nickname":"",
		"geometry": {
			            "coordinates":[46.66202917149531, 5.5677613243460655], "type":"Point"},
		"fk_collection_id":"1"
	},	
	{
		"media_id":"23451",
		"title":"la communion de ma soeur Georgette",
		"file":"communiongeorgette1.jpg",
		"author":"me",
		"fname":"Emile",
		"lname":"Richard",
		"nickname":"",
		"geometry": {
			            "coordinates":[43.280084735890284, 5.4029664024710655], "type":"Point"},
		"fk_collection_id":"1"
	},	
	{
		"media_id":"23450",
		"title":"Avant d&apos;&ecirc;tre mari&eacute;s,nous &eacute;tions communiants!",
		"file":"communion.jpg",
		"author":"anonyme",
		"fname":"",
		"lname":"",
		"nickname":"",
		"geometry": {
			            "coordinates":[43.26924622515826, 5.3919800743460655], "type":"Point"},
		"fk_collection_id":"3"
	},	
	{
		"media_id":"23449",
		"title":"Sur le &quot;Clem&quot;",
		"file":"clemenceau0419973.jpg",
		"author":"me",
		"fname":"Christian",
		"lname":" richard",
		"nickname":"",
		"geometry": {
			            "coordinates":[43.09661090739021, 5.9467896446585655], "type":"Point"},
		"fk_collection_id":"3"
	},	
	{
		"media_id":"23446",
		"title":"B&eacute;atrice et sa tatie ",
		"file":"cannesquertand19782.jpg",
		"author":"me",
		"fname":"Christian",
		"lname":"Richard",
		"nickname":"",
		"geometry": {
			            "coordinates":[43.51752506035153, 7.0289429649710655], "type":"Point"},
		"fk_collection_id":"3"
	},	
	{
		"media_id":"23445",
		"title":"le roi lion",
		"file":"cannes05196.jpg",
		"author":"anonyme",
		"fname":"",
		"lname":"",
		"nickname":"",
		"geometry": {
			            "coordinates":[43.52927507795127, 7.0234498009085655], "type":"Point"},
		"fk_collection_id":"3"
	},	
	{
		"media_id":"23443",
		"title":"&Agrave; la Saint-Jean, C&eacute;line et Pierre sont t&eacute;m&eacute;raires!",
		"file":"bridlsstjean199.jpg",
		"author":"me",
		"fname":"Christian",
		"lname":"Richard",
		"nickname":"",
		"geometry": {
			            "coordinates":[43.30207572432885, 5.3700074180960655], "type":"Point"},
		"fk_collection_id":"1"
	},	
	{
		"media_id":"23438",
		"title":"Mon ami Christian croit pouvoir y arriver. La suite prouvera le contraire!",
		"file":"arlesmanadepierreaubanel4.jpg",
		"author":"me",
		"fname":"Christian",
		"lname":"Richard",
		"nickname":"",
		"geometry": {
			            "coordinates":[43.65948693118482, 4.6504029259085655], "type":"Point"},
		"fk_collection_id":"1"
	},	
	{
		"media_id":"23437",
		"title":"un train &agrave; vapeur passe aux alyscamps au dessus du canal de vigueirat",
		"file":"arleslesalycampsvoieferr.jpg",
		"author":"me",
		"fname":"Emile",
		"lname":"Richard",
		"nickname":"",
		"geometry": {
			            "coordinates":[43.65034588237108, 4.6394165977835655], "type":"Point"},
		"fk_collection_id":"2"
	},	
	{
		"media_id":"23436",
		"title":"ma maman et moi,devant la dauphine  d&apos;un ami ",
		"file":"arlesalycampsdoloresvoiturekraeme.jpg",
		"author":"anonyme",
		"fname":"",
		"lname":"",
		"nickname":"",
		"geometry": {
			            "coordinates":[43.63766535421701, 4.6339234337210655], "type":"Point"},
		"fk_collection_id":"3"
	},	
	{
		"media_id":"23429",
		"title":"Une marseillaise entre deux arl&eacute;siennes",
		"file":"2000042.jpg",
		"author":"me",
		"fname":"Christian",
		"lname":"Richard",
		"nickname":"",
		"geometry": {
			            "coordinates":[43.672798514825395, 4.6339234337210655], "type":"Point"},
		"fk_collection_id":"1"
	},	
	{
		"media_id":"23417",
		"title":"Vue sur mer",
		"file":"VAL_080.jpg",
		"author":"me",
		"fname":"Herv&eacute;",
		"lname":"Dallaporta",
		"nickname":"",
		"geometry": {
			            "coordinates":[43.288190959410066, 5.352755356725538], "type":"Point"},
		"fk_collection_id":"2"
	},	
	{
		"media_id":"23403",
		"title":"Observation des rues de Martigues",
		"file":"01.jpg",
		"author":"nickname",
		"fname":"",
		"lname":"",
		"nickname":"Claire Lapuyade",
		"geometry": {
			            "coordinates":[43.40504748787035, 5.064697265625], "type":"Point"},
		"fk_collection_id":"2"
	},	
	{
		"media_id":"23400",
		"title":"Le Gris sous les nuages",
		"file":"photosastridle2505201350.jpg",
		"author":"",
		"fname":"",
		"lname":"",
		"nickname":"Claire Lapuyade",
		"geometry": {
			            "coordinates":[43.29320031385282, 5.3778076171875], "type":"Point"},
		"fk_collection_id":"2"
	},	
	{
		"media_id":"23399",
		"title":"Lettre urgente",
		"file":"01.jpg",
		"author":"me",
		"fname":"Claire",
		"lname":"Lapuyade",
		"nickname":"",
		"geometry": {
			            "coordinates":[43.393073720674415, 5.0701904296875], "type":"Point"},
		"fk_collection_id":"1"
	},	
	{
		"media_id":"23398",
		"title":"A l&apos;aise...",
		"file":"01.jpg",
		"author":"",
		"fname":"",
		"lname":"",
		"nickname":"Claire Lapuyade",
		"geometry": {
			            "coordinates":[43.389081939117496, 5.064697265625], "type":"Point"},
		"fk_collection_id":"3"
	},	
	{
		"media_id":"23397",
		"title":"Sourire",
		"file":"DSCF058.jpg",
		"author":"me",
		"fname":"Lucie",
		"lname":"Seta",
		"nickname":"",
		"geometry": {
			            "coordinates":[43.2935639206218, 5.37168949842453], "type":"Point"},
		"fk_collection_id":"3"
	},	
	{
		"media_id":"23396",
		"title":"Incertitude",
		"file":"DSCF065.jpg",
		"author":"me",
		"fname":"Lucie",
		"lname":"Seta",
		"nickname":"",
		"geometry": {
			            "coordinates":[43.29461470756149, 5.37405788898468], "type":"Point"},
		"fk_collection_id":"2"
	},	
	{
		"media_id":"23395",
		"title":"Arriv&eacute;e au Cours Julien ",
		"file":"DSCF064.jpg",
		"author":"me",
		"fname":"Lucie",
		"lname":"Seta",
		"nickname":"",
		"geometry": {
			            "coordinates":[43.29295237671543, 5.382474660873413], "type":"Point"},
		"fk_collection_id":"2"
	},	
	{
		"media_id":"23394",
		"title":"Regard port&eacute; au loin ",
		"file":"photosastridle2505201321.jpg",
		"author":"me",
		"fname":"Astrid",
		"lname":"Berenger",
		"nickname":"",
		"geometry": {
			            "coordinates":[43.33951493759115, 5.101159863261273], "type":"Point"},
		"fk_collection_id":"3"
	},	
	{
		"media_id":"23393",
		"title":"Effacer pour toujours recommencer ",
		"file":"photosastridle2505201363.jpg",
		"author":"me",
		"fname":"Astrid",
		"lname":"Berenger",
		"nickname":"",
		"geometry": {
			            "coordinates":[43.30000024584981, 5.367860215892506], "type":"Point"},
		"fk_collection_id":"1"
	},	
	{
		"media_id":"23392",
		"title":"Regarde vers la lumi&egrave;re",
		"file":"DSCF039.jpg",
		"author":"me",
		"fname":"Lucie",
		"lname":"Seta",
		"nickname":"",
		"geometry": {
			            "coordinates":[43.296785238595554, 5.370326265692711], "type":"Point"},
		"fk_collection_id":"3"
	},	
	{
		"media_id":"23390",
		"title":"Instantan&eacute; urbain",
		"file":"P102070.jpg",
		"author":"me",
		"fname":"Myriam",
		"lname":"CAPRON",
		"nickname":"",
		"geometry": {
			            "coordinates":[43.29652730389201, 5.369923263788223], "type":"Point"},
		"fk_collection_id":"2"
	},	
	{
		"media_id":"23389",
		"title":"En attendant le ferry boat...",
		"file":"DSCF057.jpg",
		"author":"me",
		"fname":"Lucie",
		"lname":"Seta",
		"nickname":"",
		"geometry": {
			            "coordinates":[43.295848130826236, 5.370314866304398], "type":"Point"},
		"fk_collection_id":"3"
	},	
	{
		"media_id":"23388",
		"title":"Jour de Mistral",
		"file":"grandven.jpg",
		"author":"me",
		"fname":"VINCENT",
		"lname":"LACROUTS",
		"nickname":"",
		"geometry": {
			            "coordinates":[43.339490217678325, 5.101110935211182], "type":"Point"},
		"fk_collection_id":"3"
	},	
	{
		"media_id":"23387",
		"title":"Perle dans son &eacute;crin de verdure",
		"file":"Perl.jpg",
		"author":"me",
		"fname":"VINCENT",
		"lname":"LACROUTS",
		"nickname":"",
		"geometry": {
			            "coordinates":[43.29630822749102, 5.3701794147491455], "type":"Point"},
		"fk_collection_id":"1"
	},	
	{
		"media_id":"23386",
		"title":"Cath&eacute;drale La Major ",
		"file":"DSC_075.jpg",
		"author":"me",
		"fname":"Marie-Sara",
		"lname":"Delgado",
		"nickname":"",
		"geometry": {
			            "coordinates":[43.2997839449526, 5.364859132678248], "type":"Point"},
		"fk_collection_id":"2"
	},	
	{
		"media_id":"23385",
		"title":"Prendre un savon",
		"file":"savong.jpg",
		"author":"me",
		"fname":"VINCENT",
		"lname":"LACROUTS",
		"nickname":"",
		"geometry": {
			            "coordinates":[43.29648001707961, 5.362915992736816], "type":"Point"},
		"fk_collection_id":"2"
	},	
	{
		"media_id":"23384",
		"title":"Un r&ecirc;ve d&apos;enfant",
		"file":"P102078.jpg",
		"author":"me",
		"fname":"Myriam",
		"lname":"CAPRON",
		"nickname":"",
		"geometry": {
			            "coordinates":[43.294739503274144, 5.36348395049572], "type":"Point"},
		"fk_collection_id":"3"
	},	
	{
		"media_id":"23383",
		"title":"La digue dans le ciel",
		"file":"P102076.jpg",
		"author":"me",
		"fname":"Myriam",
		"lname":"CAPRON",
		"nickname":"",
		"geometry": {
			            "coordinates":[43.29630681101127, 5.36144345998764], "type":"Point"},
		"fk_collection_id":"2"
	},	
	{
		"media_id":"23382",
		"title":"sans titre",
		"file":"20130508-11Agde00.jpg",
		"author":"me",
		"fname":"Claudine",
		"lname":"Barr&eacute;",
		"nickname":"",
		"geometry": {
			            "coordinates":[43.313188139196406, 3.4661865234375], "type":"Point"},
		"fk_collection_id":"3"
	},	
	{
		"media_id":"23381",
		"title":"Grues",
		"file":"P112020.jpg",
		"author":"me",
		"fname":"Alexia",
		"lname":"Choffat",
		"nickname":"",
		"geometry": {
			            "coordinates":[43.345154990451114, 5.361328125], "type":"Point"},
		"fk_collection_id":"2"
	},	
	{
		"media_id":"23380",
		"title":"Vallon des Auffes",
		"file":"P106086.jpg",
		"author":"me",
		"fname":"Alexia",
		"lname":"Choffat",
		"nickname":"",
		"geometry": {
			            "coordinates":[43.31718491566705, 5.372314453125], "type":"Point"},
		"fk_collection_id":"2"
	},	
	{
		"media_id":"23379",
		"title":"tapenade",
		"file":"P112006.jpg",
		"author":"me",
		"fname":"Alexia",
		"lname":"Choffat",
		"nickname":"",
		"geometry": {
			            "coordinates":[43.313188139196406, 5.372314453125], "type":"Point"},
		"fk_collection_id":"2"
	},	
	{
		"media_id":"23378",
		"title":"Belsunce",
		"file":"P112032.jpg",
		"author":"me",
		"fname":"Alexia",
		"lname":"Choffat",
		"nickname":"",
		"geometry": {
			            "coordinates":[43.30119623257966, 5.3668212890625], "type":"Point"},
		"fk_collection_id":"3"
	},	
	{
		"media_id":"23377",
		"title":"taxi",
		"file":"P112018.jpg",
		"author":"me",
		"fname":"Alexia",
		"lname":"Choffat",
		"nickname":"",
		"geometry": {
			            "coordinates":[43.313188139196406, 5.361328125], "type":"Point"},
		"fk_collection_id":"2"
	},	
	{
		"media_id":"23376",
		"title":"les &eacute;tourneaux",
		"file":"330480_10150393401973559_1213078623_.jpg",
		"author":"me",
		"fname":"Alexia",
		"lname":"Choffat",
		"nickname":"",
		"geometry": {
			            "coordinates":[43.35314407444698, 5.38330078125], "type":"Point"},
		"fk_collection_id":"3"
	},	
	{
		"media_id":"23375",
		"title":"&eacute;tourneaux devant ma fen&ecirc;tre",
		"file":"326079_10150393398048559_375114378_.jpg",
		"author":"me",
		"fname":"Alexia",
		"lname":"Choffat",
		"nickname":"",
		"geometry": {
			            "coordinates":[43.34116005412307, 5.350341796875], "type":"Point"},
		"fk_collection_id":"3"
	},	
	{
		"media_id":"23374",
		"title":"Belsunce",
		"file":"P111096.jpg",
		"author":"me",
		"fname":"Alexia",
		"lname":"Choffat",
		"nickname":"",
		"geometry": {
			            "coordinates":[43.32118142926661, 5.3668212890625], "type":"Point"},
		"fk_collection_id":"2"
	},	
	{
		"media_id":"23373",
		"title":"Vallon des Auffes",
		"file":"P106086.jpg",
		"author":"me",
		"fname":"Alexia",
		"lname":"Choffat",
		"nickname":"",
		"geometry": {
			            "coordinates":[43.305193797650546, 5.38330078125], "type":"Point"},
		"fk_collection_id":"3"
	},	
	{
		"media_id":"23372",
		"title":"la bonne m&egrave;re",
		"file":"P105044.jpg",
		"author":"me",
		"fname":"Alexia",
		"lname":"Choffat",
		"nickname":"",
		"geometry": {
			            "coordinates":[43.297198404646366, 5.350341796875], "type":"Point"},
		"fk_collection_id":"2"
	},	
	{
		"media_id":"23371",
		"title":"terrasse",
		"file":"P105029.jpg",
		"author":"me",
		"fname":"Alexia",
		"lname":"Choffat",
		"nickname":"",
		"geometry": {
			            "coordinates":[43.30119623257966, 5.3668212890625], "type":"Point"},
		"fk_collection_id":"2"
	},	
	{
		"media_id":"23370",
		"title":"&eacute;tourneaux",
		"file":"P104018.jpg",
		"author":"me",
		"fname":"Alexia",
		"lname":"Choffat",
		"nickname":"",
		"geometry": {
			            "coordinates":[43.30119623257966, 5.361328125], "type":"Point"},
		"fk_collection_id":"3"
	},	
	{
		"media_id":"23369",
		"title":"vol d&apos;&eacute;tourneaux",
		"file":"P104018.jpg",
		"author":"me",
		"fname":"Alexia",
		"lname":"Choffat",
		"nickname":"",
		"geometry": {
			            "coordinates":[43.305193797650546, 5.38330078125], "type":"Point"},
		"fk_collection_id":"3"
	},	
	{
		"media_id":"23368",
		"title":"Le d&eacute;part",
		"file":"P104008.jpg",
		"author":"me",
		"fname":"Alexia",
		"lname":"Choffat",
		"nickname":"",
		"geometry": {
			            "coordinates":[43.313188139196406, 5.372314453125], "type":"Point"},
		"fk_collection_id":"2"
	},	
	{
		"media_id":"23367",
		"title":"Bord de mer",
		"file":"P102019.jpg",
		"author":"me",
		"fname":"Alexia",
		"lname":"Choffat",
		"nickname":"",
		"geometry": {
			            "coordinates":[43.297198404646366, 5.3668212890625], "type":"Point"},
		"fk_collection_id":"2"
	},	
	{
		"media_id":"23366",
		"title":"travaux",
		"file":"P101009.jpg",
		"author":"me",
		"fname":"Alexia",
		"lname":"Choffat",
		"nickname":"",
		"geometry": {
			            "coordinates":[43.305193797650546, 5.361328125], "type":"Point"},
		"fk_collection_id":"2"
	},	
	{
		"media_id":"23365",
		"title":"Belsunce",
		"file":"P101001.jpg",
		"author":"me",
		"fname":"Alexia",
		"lname":"Choffat",
		"nickname":"",
		"geometry": {
			            "coordinates":[43.28520334369384, 5.361328125], "type":"Point"},
		"fk_collection_id":"3"
	},	
	{
		"media_id":"23364",
		"title":"Belsunce",
		"file":"P100098.jpg",
		"author":"me",
		"fname":"Alexia",
		"lname":"Choffat",
		"nickname":"",
		"geometry": {
			            "coordinates":[43.30119623257966, 5.361328125], "type":"Point"},
		"fk_collection_id":"1"
	},	
	{
		"media_id":"23363",
		"title":"Major",
		"file":"P100097.jpg",
		"author":"me",
		"fname":"Alexia",
		"lname":"Choffat",
		"nickname":"",
		"geometry": {
			            "coordinates":[43.281204464332745, 5.372314453125], "type":"Point"},
		"fk_collection_id":"2"
	},	
	{
		"media_id":"23362",
		"title":"plage du proph&egrave;te",
		"file":"P100052.jpg",
		"author":"me",
		"fname":"Alexia",
		"lname":"Choffat",
		"nickname":"",
		"geometry": {
			            "coordinates":[43.30119623257966, 5.3668212890625], "type":"Point"},
		"fk_collection_id":"2"
	},	
	{
		"media_id":"23361",
		"title":"travaux Major",
		"file":"P100036.jpg",
		"author":"me",
		"fname":"Alexia",
		"lname":"Choffat",
		"nickname":"",
		"geometry": {
			            "coordinates":[43.29320031385282, 5.3778076171875], "type":"Point"},
		"fk_collection_id":"2"
	},	
	{
		"media_id":"23359",
		"title":"Partie de p&ecirc;che au couchant",
		"file":"20120724LaCouronne10.jpg",
		"author":"me",
		"fname":"Claudine",
		"lname":"Barr&eacute;",
		"nickname":"",
		"geometry": {
			            "coordinates":[43.33266994157184, 5.044097900390625], "type":"Point"},
		"fk_collection_id":"1"
	},	
	{
		"media_id":"23358",
		"title":"au cr&eacute;puscule",
		"file":"crepuscul.jpg",
		"author":"me",
		"fname":"Alessandra",
		"lname":"Cargnel",
		"nickname":"",
		"geometry": {
			            "coordinates":[43.294391439161615, 5.358517169952393], "type":"Point"},
		"fk_collection_id":"3"
	},	
	{
		"media_id":"23357",
		"title":"Dans le port il y avait des bateaux ",
		"file":"DSC_257.jpg",
		"author":"me",
		"fname":"Marie ",
		"lname":"Colangelo",
		"nickname":"",
		"geometry": {
			            "coordinates":[43.29477115738335, 5.361898470291635], "type":"Point"},
		"fk_collection_id":"2"
	},	
	{
		"media_id":"23356",
		"title":"Regardez-les ",
		"file":"DSC_247.jpg",
		"author":"me",
		"fname":"Marie",
		"lname":"Colangelo",
		"nickname":"",
		"geometry": {
			            "coordinates":[43.301419227229985, 5.366232921369374], "type":"Point"},
		"fk_collection_id":"3"
	},	
	{
		"media_id":"23355",
		"title":"Du bleu &agrave; la fen&ecirc;tre",
		"file":"DSC_243.jpg",
		"author":"me",
		"fname":"Marie",
		"lname":"Colangelo",
		"nickname":"",
		"geometry": {
			            "coordinates":[43.299547628906104, 5.367449784462224], "type":"Point"},
		"fk_collection_id":"1"
	},	
	{
		"media_id":"23354",
		"title":"Les 2 tournesols",
		"file":"tournesolssof.jpg",
		"author":"me",
		"fname":"Roger",
		"lname":"LIPP",
		"nickname":"",
		"geometry": {
			            "coordinates":[43.23769967935207, 5.22674560546875], "type":"Point"},
		"fk_collection_id":"3"
	},	
	{
		"media_id":"23353",
		"title":"Hangars  de la CMA CGM ",
		"file":"DSC_066.jpg",
		"author":"me",
		"fname":"Marie-Sara",
		"lname":"Delgado",
		"nickname":"",
		"geometry": {
			            "coordinates":[43.29485749050967, 5.375244643364567], "type":"Point"},
		"fk_collection_id":"3"
	},	
	{
		"media_id":"23351",
		"title":"Un petit tour en bateau",
		"file":"Screenshot_2013-05-29-18-59-23-.png",
		"author":"me",
		"fname":"Clara",
		"lname":"Moron",
		"nickname":"",
		"geometry": {
			            "coordinates":[43.26920624914966, 5.3887939453125], "type":"Point"},
		"fk_collection_id":"3"
	},	
	{
		"media_id":"23350",
		"title":"un reflet &agrave; l envers",
		"file":"Screenshot_2013-05-29-14-10-13-.png",
		"author":"me",
		"fname":"Clara",
		"lname":"Moron",
		"nickname":"",
		"geometry": {
			            "coordinates":[43.29320031385282, 5.394287109375], "type":"Point"},
		"fk_collection_id":"2"
	},	
	{
		"media_id":"23349",
		"title":"Un escalier isol&eacute;",
		"file":"Screenshot_2013-05-29-14-17-48-.png",
		"author":"me",
		"fname":"Clara",
		"lname":"Moron",
		"nickname":"",
		"geometry": {
			            "coordinates":[43.29320031385282, 5.3887939453125], "type":"Point"},
		"fk_collection_id":"2"
	},	
	{
		"media_id":"23348",
		"title":"Travailleurs",
		"file":"IMG_026.jpg",
		"author":"me",
		"fname":"Lucas",
		"lname":"Dupuis",
		"nickname":"",
		"geometry": {
			            "coordinates":[43.399315339328986, 5.06008988013491], "type":"Point"},
		"fk_collection_id":"1"
	},	
	{
		"media_id":"23345",
		"title":"Diff&eacute;rentes personnes",
		"file":"Photo02.jpg",
		"author":"",
		"fname":"",
		"lname":"",
		"nickname":"Jarmasson L&eacute;a",
		"geometry": {
			            "coordinates":[43.29594902951022, 5.3688812255859375], "type":"Point"},
		"fk_collection_id":"3"
	},	
	{
		"media_id":"23334",
		"title":"Vertige",
		"file":"P525236.jpg",
		"author":"me",
		"fname":"H&eacute;lo&iuml;se",
		"lname":"Duverg&eacute;",
		"nickname":"",
		"geometry": {
			            "coordinates":[43.295640846299534, 5.369417667388916], "type":"Point"},
		"fk_collection_id":"1"
	},	
	{
		"media_id":"23333",
		"title":"Les bras au ciel",
		"file":"Marseille201314.jpg",
		"author":"me",
		"fname":"Daniel",
		"lname":"HILLION",
		"nickname":"",
		"geometry": {
			            "coordinates":[43.308865287420126, 5.368441343307495], "type":"Point"},
		"fk_collection_id":"2"
	},	
	{
		"media_id":"23332",
		"title":"Vis la M&eacute;dit&eacute;rann&eacute;e",
		"file":"Marseille201312.jpg",
		"author":"me",
		"fname":"Daniel",
		"lname":"HILLION",
		"nickname":"",
		"geometry": {
			            "coordinates":[43.29769814751322, 5.3621649742126465], "type":"Point"},
		"fk_collection_id":"2"
	},	
	{
		"media_id":"23326",
		"title":"Oeil de boeuf ",
		"file":"DSCN142.jpg",
		"author":"me",
		"fname":"Herv&eacute;",
		"lname":"Dallaporta",
		"nickname":"",
		"geometry": {
			            "coordinates":[43.2729419452318, 5.36179848073516], "type":"Point"},
		"fk_collection_id":"2"
	},	
	{
		"media_id":"23325",
		"title":"Sir&egrave;nes et Midi net",
		"file":"CAM_012.jpg",
		"author":"me",
		"fname":"Herv&eacute;",
		"lname":"Dallaporta",
		"nickname":"",
		"geometry": {
			            "coordinates":[43.29369284266875, 5.375712060911155], "type":"Point"},
		"fk_collection_id":"1"
	},	
	{
		"media_id":"23323",
		"title":"Ambiance camarguaise",
		"file":"camarguebarriere6.jpg",
		"author":"me",
		"fname":"Herv&eacute;",
		"lname":"Dallaporta",
		"nickname":"",
		"geometry": {
			            "coordinates":[43.546486210619776, 4.40909500059206], "type":"Point"},
		"fk_collection_id":"2"
	},	
	{
		"media_id":"23322",
		"title":"Nouvelle perspective",
		"file":"2013-05-1817003.jpg",
		"author":"me",
		"fname":"Herv&eacute;",
		"lname":"Dallaporta",
		"nickname":"",
		"geometry": {
			            "coordinates":[43.31092459816836, 5.38970117631834], "type":"Point"},
		"fk_collection_id":"3"
	},	
	{
		"media_id":"23321",
		"title":"M&eacute;ditation",
		"file":"2013-05-1720412.jpg",
		"author":"me",
		"fname":"Herv&eacute;",
		"lname":"Dallaporta",
		"nickname":"",
		"geometry": {
			            "coordinates":[43.29536631150889, 5.3613058108021505], "type":"Point"},
		"fk_collection_id":"3"
	},	
	{
		"media_id":"23320",
		"title":"Perspective",
		"file":"P101068.jpg",
		"author":"me",
		"fname":"Quynh",
		"lname":"Nguyen",
		"nickname":"",
		"geometry": {
			            "coordinates":[43.28804223228122, 5.3700074180960655], "type":"Point"},
		"fk_collection_id":"2"
	},	
	{
		"media_id":"23319",
		"title":"Passage de TransHumance &agrave; La Bouilladisse",
		"file":"P101063.jpg",
		"author":"me",
		"fname":"Quynh",
		"lname":"Nguyen",
		"nickname":"",
		"geometry": {
			            "coordinates":[43.39377724674852, 5.603425609879196], "type":"Point"},
		"fk_collection_id":"1"
	},	
	{
		"media_id":"23318",
		"title":"Marseille vue de la digue du large",
		"file":"P101071.jpg",
		"author":"me",
		"fname":"Quynh",
		"lname":"Nguyen",
		"nickname":"",
		"geometry": {
			            "coordinates":[43.28544325833425, 5.3755005821585655], "type":"Point"},
		"fk_collection_id":"2"
	},	
	{
		"media_id":"23317",
		"title":"Grandeur &amp; splendeur",
		"file":"P101071.jpg",
		"author":"me",
		"fname":"Quynh",
		"lname":"Nguyen",
		"nickname":"",
		"geometry": {
			            "coordinates":[43.29603882920433, 5.3755005821585655], "type":"Point"},
		"fk_collection_id":"2"
	},	
	{
		"media_id":"23316",
		"title":"Tous les chemins m&egrave;nent &agrave;...Marseille",
		"file":"P101071.jpg",
		"author":"me",
		"fname":"Quynh",
		"lname":"Nguyen",
		"nickname":"",
		"geometry": {
			            "coordinates":[43.30003673337758, 5.3700074180960655], "type":"Point"},
		"fk_collection_id":"2"
	},	
	{
		"media_id":"23315",
		"title":"Cheval de Troie des biblioth&eacute;caires de l&apos;Agglo",
		"file":"2013-05-21_10-11-15_94.jpg",
		"author":"",
		"fname":"",
		"lname":"",
		"nickname":"Mag",
		"geometry": {
			            "coordinates":[43.39361757873322, 5.597932445816696], "type":"Point"},
		"fk_collection_id":"3"
	},	
	{
		"media_id":"23313",
		"title":"Impression marseillaise",
		"file":"P101067.jpg",
		"author":"me",
		"fname":"Quynh",
		"lname":"Nguyen",
		"nickname":"",
		"geometry": {
			            "coordinates":[43.28564314580139, 5.3645142540335655], "type":"Point"},
		"fk_collection_id":"2"
	},	
	{
		"media_id":"23310",
		"title":"Direction M&eacute;diterran&eacute;e !",
		"file":"P101067.jpg",
		"author":"me",
		"fname":"Quynh",
		"lname":"Nguyen",
		"nickname":"",
		"geometry": {
			            "coordinates":[43.292040662171466, 5.3755005821585655], "type":"Point"},
		"fk_collection_id":"2"
	},	
	{
		"media_id":"23308",
		"title":"Entre les mailles du...MuCEM",
		"file":"P101067.jpg",
		"author":"me",
		"fname":"Quynh",
		"lname":"Nguyen",
		"nickname":"",
		"geometry": {
			            "coordinates":[43.28804223228122, 5.3700074180960655], "type":"Point"},
		"fk_collection_id":"2"
	},	
	{
		"media_id":"23307",
		"title":"A l&apos;ombre de la Villa",
		"file":"P101067.jpg",
		"author":"me",
		"fname":"Quynh",
		"lname":"Nguyen ",
		"nickname":"",
		"geometry": {
			            "coordinates":[43.29084133163343, 5.3755005821585655], "type":"Point"},
		"fk_collection_id":"3"
	},	
	{
		"media_id":"23306",
		"title":"Exposition ",
		"file":"P101071.jpg",
		"author":"me",
		"fname":"Quynh",
		"lname":"Nguyen",
		"nickname":"",
		"geometry": {
			            "coordinates":[43.28004458393725, 5.3645142540335655], "type":"Point"},
		"fk_collection_id":"1"
	},	
	{
		"media_id":"23305",
		"title":"Chez le photographe",
		"file":"Mamanmo.jpg",
		"author":"me",
		"fname":"Quynh",
		"lname":"Nguyen",
		"nickname":"",
		"geometry": {
			            "coordinates":[43.2813643366853, 5.3535279259085655], "type":"Point"},
		"fk_collection_id":"3"
	},	
	{
		"media_id":"23304",
		"title":"Le MuCEM et la Villa M&eacute;diterran&eacute;e",
		"file":"Photos-000.jpg",
		"author":"me",
		"fname":"Quynh",
		"lname":"Nguyen",
		"nickname":"",
		"geometry": {
			            "coordinates":[43.28268406080585, 5.3645142540335655], "type":"Point"},
		"fk_collection_id":"2"
	},	
	{
		"media_id":"23302",
		"title":"Champs marseillais",
		"file":"DSC0031.jpg",
		"author":"me",
		"fname":"Louis-arthur",
		"lname":"Lahaye",
		"nickname":"",
		"geometry": {
			            "coordinates":[43.296870446157875, 5.373666286468506], "type":"Point"},
		"fk_collection_id":"2"
	},	
	{
		"media_id":"23301",
		"title":"ombre chinoises",
		"file":"P526245.jpg",
		"author":"me",
		"fname":"H&eacute;lo&iuml;se",
		"lname":"Duverg&eacute;",
		"nickname":"",
		"geometry": {
			            "coordinates":[43.74831266296995, 4.797573387622833], "type":"Point"},
		"fk_collection_id":"3"
	},	
	{
		"media_id":"23300",
		"title":"derri&egrave;re les feuilles",
		"file":"P525227.jpg",
		"author":"me",
		"fname":"H&eacute;lo&iuml;se",
		"lname":"Duverg&eacute;",
		"nickname":"",
		"geometry": {
			            "coordinates":[43.30086190629442, 5.367923676967621], "type":"Point"},
		"fk_collection_id":"2"
	},	
	{
		"media_id":"23299",
		"title":"Vapeur",
		"file":"P5272545recadr.jpg",
		"author":"me",
		"fname":"H&eacute;lo&iuml;se",
		"lname":"Duverg&eacute;",
		"nickname":"",
		"geometry": {
			            "coordinates":[43.40393894836815, 5.0490157306194305], "type":"Point"},
		"fk_collection_id":"2"
	},	
	{
		"media_id":"23298",
		"title":"Un chat dans la gorge ?",
		"file":"DSC0035.jpg",
		"author":"me",
		"fname":"Louis-arthur",
		"lname":"Lahaye ",
		"nickname":"",
		"geometry": {
			            "coordinates":[43.299559551978916, 5.369586646556854], "type":"Point"},
		"fk_collection_id":"1"
	},	
	{
		"media_id":"23297",
		"title":"Jour de p&ecirc;che",
		"file":"DSC_257.jpg",
		"author":"me",
		"fname":"Marie",
		"lname":"Colangelo",
		"nickname":"",
		"geometry": {
			            "coordinates":[43.2951781522364, 5.361267185944598], "type":"Point"},
		"fk_collection_id":"1"
	},	
	{
		"media_id":"23296",
		"title":"P&ecirc;cheur du midi",
		"file":"DSC0040.jpg",
		"author":"me",
		"fname":"Louis-arthur",
		"lname":"Lahaye",
		"nickname":"",
		"geometry": {
			            "coordinates":[43.29357514603109, 5.372400283813477], "type":"Point"},
		"fk_collection_id":"1"
	},	
	{
		"media_id":"23295",
		"title":"Complicit&eacute;",
		"file":"pharo194.jpg",
		"author":"anonyme",
		"fname":"",
		"lname":"",
		"nickname":"",
		"geometry": {
			            "coordinates":[43.265706324114475, 5.21026611328125], "type":"Point"},
		"fk_collection_id":"3"
	},	
	{
		"media_id":"23293",
		"title":"Christophe Colomb",
		"file":"P100010.jpg",
		"author":"me",
		"fname":"Maxime",
		"lname":"Domenge",
		"nickname":"",
		"geometry": {
			            "coordinates":[41.37576196759542, 2.177739143371582], "type":"Point"},
		"fk_collection_id":"2"
	},	
	{
		"media_id":"23292",
		"title":"la statue",
		"file":"P100010.jpg",
		"author":"me",
		"fname":"Maxime",
		"lname":"Domenge",
		"nickname":"",
		"geometry": {
			            "coordinates":[41.38250820439706, 2.148299217224121], "type":"Point"},
		"fk_collection_id":"1"
	},	
	{
		"media_id":"23291",
		"title":"les barques de Martigues ",
		"file":"P100047.jpg",
		"author":"me",
		"fname":"Maxime",
		"lname":"Domenge",
		"nickname":"",
		"geometry": {
			            "coordinates":[43.40727476847291, 5.054744929075241], "type":"Point"},
		"fk_collection_id":"2"
	},	
	{
		"media_id":"23290",
		"title":"couch&eacute; de soleil",
		"file":"P100032.jpg",
		"author":"me",
		"fname":"Maxime",
		"lname":"Domenge",
		"nickname":"",
		"geometry": {
			            "coordinates":[41.57710219164392, 2.261161208152771], "type":"Point"},
		"fk_collection_id":"2"
	},	
	{
		"media_id":"23282",
		"title":"Muerto Coco",
		"file":"Muertococ.jpg",
		"author":"me",
		"fname":"Herv&eacute;",
		"lname":"Dallaporta",
		"nickname":"",
		"geometry": {
			            "coordinates":[43.2521179582348, 5.383150792167726], "type":"Point"},
		"fk_collection_id":"3"
	},	
	{
		"media_id":"23280",
		"title":"Deux s&oelig;urs ",
		"file":"MamanetTanteMarie-Louis.jpg",
		"author":"me",
		"fname":"Anne",
		"lname":"Lucari",
		"nickname":"",
		"geometry": {
			            "coordinates":[43.661911057260674, 4.63348388671875], "type":"Point"},
		"fk_collection_id":"3"
	},	
	{
		"media_id":"23277",
		"title":"Un Dimanche Apr&egrave;s -midi ",
		"file":"Grand_Mamansamereetenfant.jpg",
		"author":"me",
		"fname":"Anne",
		"lname":"Lucari",
		"nickname":"",
		"geometry": {
			            "coordinates":[43.653962732819366, 4.72137451171875], "type":"Point"},
		"fk_collection_id":"3"
	},	
	{
		"media_id":"23276",
		"title":"Petites filles mod&egrave;les ",
		"file":"Grand_Mamanetenfant.jpg",
		"author":"me",
		"fname":"Anne",
		"lname":"Lucari",
		"nickname":"",
		"geometry": {
			            "coordinates":[43.66091757424481, 4.6630096435546875], "type":"Point"},
		"fk_collection_id":"3"
	},	
	{
		"media_id":"23274",
		"title":"Enfants sages",
		"file":"chasseursdimages00.jpg",
		"author":"me",
		"fname":"Anne",
		"lname":"Lucari",
		"nickname":"",
		"geometry": {
			            "coordinates":[43.64800079902171, 4.6527099609375], "type":"Point"},
		"fk_collection_id":"3"
	},	
	{
		"media_id":"23272",
		"title":"Sans-issue ?",
		"file":"2013-05-Seta-paysag.jpg",
		"author":"me",
		"fname":"Lucie",
		"lname":"Seta",
		"nickname":"",
		"geometry": {
			            "coordinates":[43.29770595596295, 5.3675079345703125], "type":"Point"},
		"fk_collection_id":"2"
	},	
	{
		"media_id":"23271",
		"title":"multitude",
		"file":"IMG_022.jpg",
		"author":"me",
		"fname":"Lucas",
		"lname":"Dupuis",
		"nickname":"",
		"geometry": {
			            "coordinates":[43.28820233071705, 5.38055419921875], "type":"Point"},
		"fk_collection_id":"1"
	},	
	{
		"media_id":"23270",
		"title":"Un employ&eacute; en action !",
		"file":"2013-05-Capirchia-Usag.jpg",
		"author":"me",
		"fname":"Nicolas",
		"lname":"Capirchia",
		"nickname":"",
		"geometry": {
			            "coordinates":[43.30007967818681, 5.367915630340576], "type":"Point"},
		"fk_collection_id":"1"
	},	
	{
		"media_id":"23269",
		"title":"La maison diament&eacute;e",
		"file":"2013-05-Capirchia-Paysage.jpg",
		"author":"me",
		"fname":"Nicolas",
		"lname":"Capirchia",
		"nickname":"",
		"geometry": {
			            "coordinates":[43.29657372028703, 5.369862914085388], "type":"Point"},
		"fk_collection_id":"2"
	},	
	{
		"media_id":"23268",
		"title":"le centre bourse",
		"file":"usag.jpg",
		"author":"me",
		"fname":"Maxime",
		"lname":"Domenge",
		"nickname":"",
		"geometry": {
			            "coordinates":[43.298233284215755, 5.374996662139893], "type":"Point"},
		"fk_collection_id":"2"
	},	
	{
		"media_id":"23267",
		"title":"Entre amies",
		"file":"2013-05-Capirchia-Personnage.jpg",
		"author":"me",
		"fname":"Nicolas",
		"lname":"Capirchia",
		"nickname":"",
		"geometry": {
			            "coordinates":[43.30044275581607, 5.367904901504517], "type":"Point"},
		"fk_collection_id":"3"
	},	
	{
		"media_id":"23266",
		"title":"La discution",
		"file":"IMG_470.jpg",
		"author":"me",
		"fname":"Paul",
		"lname":"Cuadrado",
		"nickname":"",
		"geometry": {
			            "coordinates":[43.30003387013506, 5.368178486824036], "type":"Point"},
		"fk_collection_id":"1"
	},	
	{
		"media_id":"23265",
		"title":"le pr&eacute;au",
		"file":"portrait2.jpg",
		"author":"me",
		"fname":"Maxime",
		"lname":"Domenge",
		"nickname":"",
		"geometry": {
			            "coordinates":[43.294646007995915, 5.374090075492859], "type":"Point"},
		"fk_collection_id":"2"
	},	
	{
		"media_id":"23264",
		"title":"Le lampadaire et la vieille charit&eacute;",
		"file":"paysag.jpg",
		"author":"me",
		"fname":"Maxime",
		"lname":"Domenge",
		"nickname":"",
		"geometry": {
			            "coordinates":[43.296232222949186, 5.362873077392578], "type":"Point"},
		"fk_collection_id":"2"
	},	
	{
		"media_id":"23262",
		"title":"Barreaux",
		"file":"Barreau.jpg",
		"author":"anonyme",
		"fname":"",
		"lname":"",
		"nickname":"",
		"geometry": {
			            "coordinates":[43.281204464332745, 5.3887939453125], "type":"Point"},
		"fk_collection_id":"2"
	},	
	{
		"media_id":"23261",
		"title":"Personnage",
		"file":"Personn.jpg",
		"author":"anonyme",
		"fname":"",
		"lname":"",
		"nickname":"",
		"geometry": {
			            "coordinates":[43.27320591705845, 5.38330078125], "type":"Point"},
		"fk_collection_id":"3"
	},